Frame ID,Media Owner,Format,Address,Town,Postcode,Latitude,Longitude,Status
2000113456,75Media,DM6,"The M8 Tower, Glasow (Eastbound)",Paisley,PA3 2SG,55.86301572,-4.42464738,Live
2000113457,75Media,DM6,"The M8 Tower, Glasgow (Westbound)",Paisley,PA3 2SG,55.86301113,-4.42458567,Live
2000196026,75Media,DM6,New Craven Gate Leeds M621,Leeds,LS11 5NF,53.78295413,-1.54090941,Live
2000214431,75Media,D48,Shorehead Rounabout (A629),Huddersfield,HD1 2QB,53.64524909,-1.77778508,Live
2000214432,75Media,DM6,Broadway (A38),Bridgwater,TA6 5AR,51.1285905,-2.99777358,Live
2000214433,75Media,D96,Western Avenue Westbound (A40),Acton,W3 0BF,51.5265001,-0.27968703,Live
2000214434,75Media,D96,Western Avenue Eastbound (A40),Acton,W3 0BF,51.52650083,-0.27967946,Live
2000214435,75Media,D48,1 Canal Road (A6037),Bradford,BD2 1AP,53.81066732,-1.75749486,Live
2000214436,75Media,D48,96 Geldard Road (A62),Batley,WF17 9LP,53.73963193,-1.65245976,Live
2000215934,75Media,D48,1260 Kingsbury Road,Birmingham,B35 6AG,52.52690909,-1.78607544,Live
2000215935,75Media,D48,Walsall Road (Southbound),Wolverhampton,WS10 8NA,52.57484522,-2.01811861,Live
2000215937,75Media,D48,Whitehall Road,Leeds,LS12 6EP,53.78547492,-1.5776389,Live
2000215938,75Media,D48,223 Bowling Back Lane,Bradford,BD4 8SJ,53.78685128,-1.73097978,Live
2000215939,75Media,D48,2 Newmarket Street,Consett,DH8 5LQ,54.85386398,-1.8346651,Live
2000215940,75Media,D48,Petershill Road,Glasgow North,G21 4RS,55.87727426,-4.23086269,Live
2000215941,75Media,D48,15 Seafield Road (Northbound),Edinburgh,EH15 1EB,55.958838,-3.1242792,Live
2000215942,75Media,D48,15 Seafield Road (Southbound),Edinburgh,EH15 1EB,55.9587507,-3.1241988,Live
2000215943,75Media,D48,97 Clepington Road (Eastbound),Dundee,DD4 7DF,56.477445,-2.9592295,Live
2000215944,75Media,D48,97 Clepington Road (Westbound),Dundee,DD4 7DF,56.4774467,-2.9591702,Live
2000215945,75Media,D48,875 Harrow Road,Kensal Green,NW10 5NG,51.5321431,-0.2379537,Live
2000215946,75Media,D48,457 Manchester Road,Stockport,SK4 5DJ,53.42938471,-2.17828517,Live
2000215947,75Media,D48,297 Willenhall Road,Wolverhampton,WV1 2HY,52.58353242,-2.09305536,Live
2000215949,75Media,D48,95 Bowes Road,Palmers Green,N13 4RU,51.6122656,-0.11825047,Live
2000215950,75Media,D48,"Dartmouth Park Hill, Islington",Kentish Town,NW5 1HL,51.5580215,-0.1390961,Live
2000215951,75Media,D48,212 Gallowgate,Glasgow North,G1 5DS,55.8554953,-4.2381834,Live
2000215952,75Media,D48,Hamilton Road c/o New Road,Cambuslang,G72 7PU,55.81113315,-4.13756815,Live
2000215953,75Media,D48,Mucklow Hill,Halesowen,B62 8DL,52.45445884,-2.03914867,Live
2000215954,75Media,D48,1 Harraby Green Road,Carlisle,CA1 2QA,54.88303617,-2.91553596,Live
2000215955,75Media,D48,Hulme Road heading to Etihad Stadium,Manchester,M40 8AG,53.49575587,-2.21004004,Live
2000215956,75Media,D48,87 Stanningley Road,Leeds,LS12 3NW,53.8010946,-1.5999496,Live
2000215957,75Media,D48,58 Fore Street,Edmonton,N18 2SS,51.6103792,-0.0655101,Live
2000215958,75Media,D48,238 Huddersfield Road,Mirfield,WF14 9PY,53.6768517,-1.7020963,Live
2000215959,75Media,D48,1 North Street,Grantham,NG31 6NU,52.915001,-0.6442226,Live
2000215960,75Media,D48,Weir Street c/o Brick Lane,Paisley,PA3 4AE,55.8479452,-4.4204859,Live
2000215961,75Media,D48,144 High Street,Connah's Quay,CH5 4DQ,53.21677644,-3.05085736,Live
2000215962,75Media,D48,136 Oxford Street,Wolverhampton,WV14 7DP,52.56243206,-2.06491162,Live
2000215963,75Media,D48,Kings Road opp Wharfdale Road,Birmingham,B11 2DE,52.4543362,-1.8378577,Live
2000215964,75Media,D48,"88 High Street, Staple Hill",Bristol,BS16 5HL,51.48111857,-2.50899377,Live
2000215965,75Media,D48,1093 Kingsbury Road (Northbound),Birmingham,B35 6AH,52.5208178,-1.79702559,Live
2000215966,75Media,D48,1093 Kingsbury Road (Southbound),Birmingham,B35 6AH,52.52083224,-1.7969934,Live
2000215967,75Media,D48,166 Bromford Lane,Birmingham,B24 8DE,52.5098592,-1.8332754,Live
2000215968,75Media,D48,Hendon Court House (Southbound),Hendon,NW9 7BY,51.5815847,-0.2448587,Live
2000215969,75Media,D48,Hendon Court House (Northbound),Hendon,NW9 7BY,51.5815668,-0.2448411,Live
2000216145,75Media,D48,2234 London Road,Glasgow North,G32 8YG,55.83636148,-4.15807257,Live
2000256312,75Media,D48,A58 Heap Bridge,Bury,BL9 7HR,53.5913305,-2.2654696,Live
2000256313,75Media,D48,Mile End Road adj Ferry Port,Portsmouth,PO2 8RU,50.81104999,-1.08668166,Live
2000256314,75Media,D48,456 Chorley Road,Swinton Pendlebury,M27 9RH,53.5168268,-2.3511907,Live
2000256315,75Media,D48,A570 Dentons Green Lane,St Helens,WA10 2QF,53.4572969,-2.7475102,Live
2000256316,75Media,D48,"4 New Hay Road, facing Wakefield Road",Bradford,BD4 7HY,53.7824935,-1.7341981,Live
2000256317,75Media,D48,"New Cleveland Street, Jenning Street",Hull,HU8 7AN,53.7512904,-0.3292816,Live
2000256318,75Media,D48,"A665,  Chancellor Lane",Manchester,M12 5FX,53.4752108,-2.2178818,Live
2000256319,75Media,D48,331 Prescot Road,Liverpool,L13 8BS,53.4149724,-2.926773,Live
2000256320,75Media,D48,Pedmore Road,Dudley,DY5 1TH,52.48631,-2.10732,Live
2000256321,75Media,D48,"A674, 80 Whalley Banks",Blackburn (Lancs),BB2 1PB,53.7435929,-2.49301462,Live
2000256323,75Media,D48,"Marconi Way, Metro Centre approach",Whickham,NE16 3AU,54.9558939,-1.6815537,Live
2000256569,75Media,D48,Kingstanding Road,Birmingham,B44 8AA,52.53073869,-1.89114552,Live
2000256570,75Media,D48,Pottery Lane,Manchester,M12 5DE,53.47073598,-2.19460277,Live
2000256749,75Media,D96,M621Junction 5,Leeds,LS11 5JD,53.77273714,-1.54069912,Live
2000256754,75Media,D48,"Taylors Lane, Parkgate",Rotherham,S62 6EE,53.44989649,-1.34627596,Live
2000256756,75Media,D48,York Road,Leeds,LS9 9NT,53.79765304,-1.5178043,Live
2000256757,75Media,D48,Meadow Road,Leeds,LS11 5DE,53.78877949,-1.54504801,Live
2000256758,75Media,D48,Strand Rd,Bootle,L20 4BB,53.45125353,-2.99562033,Live
2000256759,75Media,D48,Bury New Road,Manchester,M8 8DY,53.49897363,-2.25532193,Live
2000256760,75Media,D48,28 Moor Lane,Bolton,BL1 4TH,53.57774915,-2.43475439,Live
2000256948,75Media,D48,Black Country New Road off Patent Shaft Roundabout,West Bromwich,WS10 7NZ,52.554814,-2.0326728,Live
2000256949,75Media,D48,515 Abbey Road,Abbey Wood,SE2 9HA,51.49005358,0.1215667,Live
2000256950,75Media,D48,Sutton New Road c/o Coton Lane,Birmingham,B23 6TP,52.5229045,-1.8430377,Live
2000256951,75Media,D48,"Wharton Road (A5018), Westbound",Winsford,CW7 3AA,53.1931796,-2.5161495,Live
2000256953,75Media,D96,"A441, 1581 Pershore Road",Birmingham,B30 2JF,52.42182529,-1.92194738,Live
2000256954,75Media,D96,Great Western Way,Dudley,DY4 7AB,52.5312888,-2.0352623,Live
2000256955,75Media,D96,"M5 Tower, Northbound, West Midlands",Warley,B69 4ET,52.5033033,-2.0061551,Live
2000256956,75Media,D96,"M5 Tower, Southbound, West Midlands",Warley,B69 4ET,52.5033131,-2.0061149,Live
2000257232,75Media,D48,Lyons Lane (Westbound),Chorley Adlington,PR6 0PJ,53.65105568,-2.62352372,Live
2000259548,75Media,D48,268 Wakefield Road (A368),Ossett,WF5 9AB,53.6800587,-1.54548264,Live
2000260538,75Media,D48,72 Rochdale Road (A664),Manchester,M40 7GT,53.49310575,-2.22508818,Live
2000260539,75Media,D96,Liverpool Road (A57),Eccles,M30 7RU,53.46749511,-2.39238596,Live
2000267659,75Media,DM6,Spaghetti Gateway,Birmingham,B6 7SS,52.5072964,-1.86446974,Live
2000267660,75Media,DM6,Spaghetti Gateway,Birmingham,B6 7SS,52.50729477,-1.86447538,Live
2000268486,75Media,D48,"Barr Hill Playing Fields, Duchy Road (A6)",Salford,M6 7HP,53.49758409,-2.30181019,Live
2000268577,75Media,D48,368 York Road (A64),Leeds,LS9 9EB,53.80001713,-1.50424338,Live
2000268578,75Media,D48,368 York Road (A64),Leeds,LS9 9EB,53.80014544,-1.50380618,Live
2000268579,75Media,D48,52 Cricklewood Lane,Cricklewood,NW2 1HG,51.55784367,-0.21293123,Live
2000268581,75Media,D48,"295 Beverley Road, Hull",Hull,HU5 2EL,53.76729647,-0.3588047,Live
2000268583,75Media,D48,465 Rooley Lane,Bradford,BD4 7SE,53.7743136,-1.73004593,Live
2000268591,75Media,DM6,Manchester Road (A597),Bolton,BL2 1EH,53.57475121,-2.42376176,Live
2000268850,75Media,D48,"Talbot Road, Eastbound (A5014)",Stretford,M16 0PF,53.46214557,-2.2777704,Live
2000268964,75Media,D48,Clarkston Road/Darsie Street,Glasgow South,G44 3EJ,55.81202352,-4.26918444,Live
2000268966,75Media,D48,23 Ferguslie,Paisley,PA1 2QU,55.84116452,-4.44860181,Live
2000268968,75Media,D48,Bridge Street,Cambuslang,G72 7EA,55.82232069,-4.17079743,Live
2000268969,75Media,D48,Hamilton Road,Cambuslang,G72 7NT,55.81728176,-4.15995694,Live
2000268970,75Media,D48,355 Balmore Road,Glasgow North,G22 6NT,55.88995265,-4.25916399,Live
2000268971,75Media,D48,355 Balmore Road,Glasgow North,G22 6NT,55.88990151,-4.25914789,Live
2000268972,75Media,D48,Craigneuk Street,Wishaw,ML2 7UY,55.78165698,-3.96724186,Live
2000269308,75Media,D48,510 East Prestcot Road,Liverpool,L14 9PW,53.4200768,-2.8743075,Live
2000269309,75Media,D48,999 Wolverhampton Road (Northbound),Warley,B69 4RJ,52.4918596,-2.0208084,Live
2000269310,75Media,D48,999 Wolverhampton Road (Southbound),Warley,B69 4RJ,52.4918694,-2.0208151,Live
2000269311,75Media,D48,72 Horninglow Road,Burton Upon Trent,DE14 2PP,52.81609,-1.63881,Live
2000269312,75Media,D48,"A586, Talbot Road (Westbound)",Blackpool,FY1 3QS,53.8236742,-3.0459519,Live
2000269313,75Media,D48,"A586, Talbot Road (Eastbound)",Blackpool,FY1 3QS,53.8238175,-3.0457199,Live
2000269314,75Media,D48,Saltley Road,Birmingham,B8 1JG,52.4920865,-1.8601792,Live
2000269315,75Media,D48,1200 Rochdale Road,Manchester,M9 6FR,53.5329912,-2.2073596,Live
2000269316,75Media,D48,756 Kingsbury Road,Birmingham,B24 9PS,52.51643,-1.81335,Live
2000269317,75Media,D48,828 Leeds Road,Bradford,BD3 9TY,53.7921775,-1.7285335,Live
2000269318,75Media,D48,"A4161, Cowbridge Road East",Cardiff,CF5 1AA,51.4849831,-3.2279692,Live
2000269319,75Media,D96,"A41, Warwick Road",Birmingham,B11 2QX,52.4530149,-1.8548697,Live
2000269320,75Media,D96,"A4161, Cowbridge Road East",Cardiff,CF5 1AA,51.4851986,-3.2281801,Live
2000269509,75Media,D48,127 Merry Street (A723),Motherwell,ML1 1NA,55.79241667,-3.98931258,Live
2000269510,75Media,D48,"Alexander Street, Wishaw",Wishaw,ML2 0GA,55.77371177,-3.93270919,Live
2000269511,75Media,D48,"Alexander Street, Wishaw",Wishaw,ML2 0GA,55.77373422,-3.93282367,Live
2000269512,75Media,D48,Saughton Road North,Edinburgh,EH12 7DS,55.93310627,-3.27479571,Live
2000269513,75Media,D48,West Granton Road,Edinburgh,EH5 1PD,55.97851499,-3.23161114,Live
2000269514,75Media,D48,201 Dumbarton Road (A814),Clydebank,G81 4XJ,55.90488963,-4.41596011,Live
2000269515,75Media,D48,201 Dumbarton Road (A814),Clydebank,G81 4XJ,55.90503097,-4.41612104,Live
2000269516,75Media,D48,88 Shore Street (A770),Gourock,PA19 1RD,55.95942675,-4.81604646,Live
2000269517,75Media,D48,9a Victoria Road,Rutherglen,G73 3QF,55.84202272,-4.26260298,Live
2000269518,75Media,D48,"Water Street, Rochdale",Rochdale,OL16 1UH,53.61617505,-2.15242687,Live
2000269519,75Media,D48,"Water Street, Rochdale",Rochdale,OL16 1UH,53.61604967,-2.15285465,Live
2000269520,75Media,D48,Wakefield Road (A639),Leeds,LS10 1SF,53.77123845,-1.51655321,Live
2000269521,75Media,D48,"Main Street, Forth (A706)",Lanark,ML11 8AE,55.77086953,-3.68351373,Live
2000269522,75Media,D48,"Main Street, Forth (A706)",Lanark,ML11 8AE,55.77089557,-3.68350156,Live
2000269534,75Media,D48,Keppochill Road,Glasgow North,G21 1HZ,55.87675176,-4.24941879,Live
2000269537,75Media,D48,158 Balmore Road (A879),Glasgow North,G22 6LJ,55.88780347,-4.25762442,Live
2000269538,75Media,D48,158 Balmore Road (A879),Glasgow North,G22 6LJ,55.88761514,-4.25752839,Live
2000269539,75Media,D48,"Park Street, Motherwell",Motherwell,ML1 1PF,55.78980476,-3.98688709,Live
2000269544,75Media,D48,Albert Street,Motherwell,ML1 1PR,55.79074769,-3.98524316,Live
2000269547,75Media,D48,Marionville Rd at Meadowbank,Edinburgh,EH7 6AQ,55.95822076,-3.15817939,Live
2000269549,75Media,D48,26 Bridge Street (A763),Cambuslang,G72 7EA,55.82053062,-4.17156084,Live
2000269553,75Media,D48,Baker Street,Greenock,PA15 4TU,55.94272322,-4.75037773,Live
2000269554,75Media,D48,Baker Street,Greenock,PA15 4TU,55.94250831,-4.75042813,Live
2000269562,75Media,D48,Portland Road,Irvine,KA12 8NL,55.60356522,-4.67465036,Live
2000269564,75Media,D48,Portland Road Northbound,Irvine,KA12 8NL,55.60345005,-4.67436976,Live
2000269568,75Media,D48,Cambuslang Road (A724),Rutherglen,G73 3JY,55.82619433,-4.19318215,Live
2000269569,75Media,D48,Cambuslang Road (A724),Rutherglen,G73 3JY,55.82625007,-4.19324116,Live
2000269573,75Media,D48,Newmains (A73),Wishaw,ML2 9BG,55.78130346,-3.87845454,Live
2000269574,75Media,D48,Newmains (A73),Wishaw,ML2 9BG,55.7814914,-3.87831209,Live
2000269576,75Media,D48,"Eastwoodmains Road, Giffnock (A727)",Glasgow South,G76 7HN,55.79449981,-4.28792213,Live
2000269581,75Media,D48,Renfrew Road at King George V Docks,Glasgow South,G51 4SN,55.86786378,-4.34632699,Live
2000269582,75Media,D48,Renfrew Road at King George V Docks,Glasgow South,G51 4SN,55.86776445,-4.34599976,Live
2000269598,75Media,D48,Radford Road,Nottingham,NG7 5LG,52.96519016,-1.17054276,Live
2000269637,75Media,D48,Albion Way (A5063),Salford,M5 4BF,53.48265302,-2.27756017,Live
2000269638,75Media,D48,"Edgware Road, Northbound (A5)",Neasden,NW2 7JA,51.56896997,-0.23014865,Live
2000269639,75Media,D48,"Edgware Road, Southbound (A5)",Neasden,NW2 7JA,51.56899367,-0.23017841,Live
2000270075,75Media,D96,Port Glasgow Road (Eas,Greenock,PA15 2UL,55.93957446,-4.71769425,Live
2000270076,75Media,D96,Port Glasgow Road (Westbound),Greenock,PA15 2UL,55.93962109,-4.71789301,Live
2000270136,75Media,D48,Kenrick Way (A4182),West Bromwich,B70 6EA,52.50807764,-1.98992545,Live
2000270229,75Media,D48,32 Elenora Street,Stoke On Trent,ST4 1QD,53.0063371,-2.1836875,Live
2000270230,75Media,D48,1894 Pershore Road,Birmingham,B30 3AS,52.41534807,-1.92929535,Live
2000270231,75Media,D48,"A468, Caerphilly Road, New Garw Hill",Cardiff,CF15 7UN,51.567818,-3.252222,Live
2000270240,75Media,DM6,"Eastfield Rd, Ingliston, Edinburgh (Northbound)",Uphall Newbridge,EH28 8LL,55.94311162,-3.36109743,Live
2000270241,75Media,DM6,"Eastfield Rd, Ingliston, Edinburgh (Southbound)",Uphall Newbridge,EH28 8LL,55.9431437,-3.36112456,Live
2000270362,75Media,D48,"11 Claremont Road, Bolton Road, Salford",Salford,M6 7NW,53.5015905,-2.31032147,Live
2000270368,75Media,D48,"Railway Social Club, Wakefield Road",Bradford,BD4 7PE,53.78855229,-1.74252401,Live
2000270369,75Media,D48,"Walthamslow Avenue, North Circular Road, Chingford",Chingford,E4 8QG,51.61104554,-0.03056231,Live
2000270394,75Media,D48,"1 Wharton Road, Winsford. Eastbound.",Winsford,CW7 3AA,53.19327022,-2.51638155,Live
2000270395,75Media,D48,"777 Bristol Road South, Northfield",Birmingham,B31 2NQ,52.41528117,-1.97097381,Live
2000270396,75Media,D48,Padholme Road,Peterborough,PE1 5XH,52.57722928,-0.21350705,Live
2000270397,75Media,D48,"Regent Street, Swindon",Swindon,SN1 1JL,51.55976633,-1.78263318,Live
2000270398,75Media,DM6,Milton Link (A1),Edinburgh,EH15 3QH,55.94291237,-3.1026794,Live
2000270399,75Media,DM6,East Lancashire Road (A580) (Eastbound),Worsley,M28 2QB,53.51114208,-2.36137889,Live
2000270400,75Media,DM6,East Lancashire Road (A580) (Westbound),Worsley,M28 2QB,53.51109848,-2.36124268,Live
2000270401,75Media,D48,Marton Road,Middlesbrough,TS1 2RB,54.57555996,-1.22783006,Live
2000270402,75Media,D48,Millerston Street (B763) Northbound,Glasgow North,G31 1QE,55.85733057,-4.21406056,Live
2000270403,75Media,D48,D48 Millerston Street (B763) Southbound,Glasgow North,G31 1QE,55.85738214,-4.21402458,Live
2000270858,75Media,D48,Briggate (A657),Baildon,BD17 7BT,53.83506151,-1.77423159,Live
2000284700,75Media,D48,D48 at 55 Hamilton Road (A721),Bellshill,ML4 1AG,55.81680921,-4.02596251,Live
2000284701,75Media,D48,"500 Chester Road (A5014), Manchester. M16 9HU",Manchester,M16 9HU,53.46321795,-2.27315383,Live
2000284703,75Media,D48,D48 at 77 Streatham Road (A216),Mitcham,CR4 2AH,51.41329477,-0.15561337,Live
2000284705,75Media,D48,D48 at Otley Road (A6038),Baildon,BD17 7EP,53.83829285,-1.7729469,Live
2000286449,75Media,D48,Bowling Back Lane,Bradford,BD4 8SA,53.78727178,-1.73959095,Live
2000286483,75Media,D48,D48 182 High Street,Stoke On Trent,ST6 5TT,53.05953778,-2.20986193,Live
2000286484,75Media,D48,D48 30 Inchinnan Road,Paisley,PA3 2PR,55.85594292,-4.42648247,Live
2000286485,75Media,D48,141 Ealing Road,Wembley,HA0 4BP,51.54518063,-0.29673442,Live
2000286486,75Media,D48,"811 Bristol Road South, Northfield",Birmingham,B31 2NQ,52.41528691,-1.9709716,Live
2000287229,75Media,D48,"A60, 56 King Street",Loughborough,LE11 1SD,52.76889697,-1.19943028,Live
2000287230,75Media,D48,"A58, Bury Street (Eastbound)",Heywood,OL10 3DD,53.59301471,-2.23471019,Live
2000287231,75Media,D48,"A58, Bury Street (Westbound)",Heywood,OL10 3DD,53.59301471,-2.23471019,Live
2000287232,75Media,D48,1094 Pershore Road,Birmingham,B30 2YG,52.43375278,-1.91852867,Live
2000287233,75Media,D48,"A53, Leek New Road",Stoke On Trent,ST6 2LE,53.0398505,-2.18148785,Live
2000287343,75Media,D48,"57 Park Road, St Helens",St Helens,WA9 1NQ,53.45518169,-2.71895535,Live
2000287533,75Media,D48,"500 Chester Road, (A5014), Eastbound",Manchester,M16 9HU,53.46320116,-2.27317833,Live
2000287544,75Media,D48,"D48 at 55 Hamilton Road (A721), Bellshill",Bellshill,ML4 1AG,55.81679449,-4.0259687,Live
2000287546,75Media,D48,"Old Mill Lane, Barnsley",Barnsley,S71 1LL,53.56188273,-1.47141757,Live
2000287548,75Media,D48,"Old Mill Lane, Northbound",Barnsley,S71 1LL,53.56190899,-1.47139845,Live
2000287553,75Media,D48,"Queens Shopping Park, Preston",Preston,PR1 4HZ,53.76097552,-2.68996402,Live
2000287554,75Media,D48,"D48 Atherleigh Way (A579), Leigh",Leigh,WN7 4EQ,53.49881001,-2.52639094,Live
2000287556,75Media,D48,"Atherleigh Way (A579), Leigh",Leigh,WN7 4EQ,53.49877679,-2.5264409,Live
2000288272,75Media,D96,"Broad Street, Salford",Salford,M6 5BZ,53.49393607,-2.29490343,Live
2000288326,75Media,D48,485 Aikenhead Road (A728). Glasgow,Glasgow South,G42 0PP,55.83449053,-4.24851946,Live
2000288327,75Media,D48,"Adderley Road, Birmingham",Birmingham,B8 1JE,52.49209495,-1.85996766,Live
2000302434,75Media,D48,"Cuckoo Road, corner of Lichfield Road.",Birmingham,B6 7SR,52.50734,-1.86366,Live
2000302435,75Media,D48,159 Leytonstone Road,Stratford West Ham,E15 1LH,51.55000898,0.00476175,Live
2000303426,75Media,DM6,Fairfield Street (A635),Manchester,M12 5FX,53.47403061,-2.21841716,Live
2000303654,75Media,D96,M8 Monopole (Westbound),Shotts,ML7 5TW,55.85604207,-3.7925693,Live
2000303655,75Media,D96,M8 Monopole (Eastbound),Shotts,ML7 5TW,55.85604207,-3.7925693,Live
2000304787,75Media,D48,Effingham Street (A633),Rotherham,S65 1BL,53.43597308,-1.35378557,Live
1235473685,Alight Media,D48,"Electric Bar, 291 Airbles, Motherwell",Motherwell,ML1 3AW,55.7829316,-3.9943603,Live
2000095254,Alight Media,D48,"Lancaster Bridge, New Town Row, Birmingham 1",Birmingham,B6 4HT,52.48913512,-1.89401484,Live
2000095270,Alight Media,D48,"Lancaster Bridge, New Town Row, Birmingham 2",Birmingham,B6 4HT,52.48912662,-1.89401604,Live
2000099355,Alight Media,D48,"Trinity Way, junction w/Lamb Lane, Manchester",Salford,M3 6AY,53.48425799,-2.2570556,Live
2000099429,Alight Media,D48,"Meadowhall Road, Sheffield 1",Sheffield,S9 1BS,53.41006848,-1.4228161,Live
2000099430,Alight Media,D48,"Meadowhall Road, Sheffield 2",Sheffield,S9 1BS,53.41010816,-1.42276323,Live
2000099431,Alight Media,D48,"Fresh Wharf, North Circular Road, London 1",Barking,IG11 7BP,51.52935749,0.07269538,Live
2000099432,Alight Media,D48,"Fresh Wharf, North Circular Road, London 2",Barking,IG11 7BP,51.5293483,0.072671,Live
2000099433,Alight Media,D48,"56 Hamilton Road, Cambuslang, Glasgow",Cambuslang,G72 7NT,55.81761752,-4.160184,Live
2000100052,Alight Media,D48,"The Leisure Exchange, Shipley Airdale Road",Bradford,BD1 5LD,53.79161126,-1.74586802,Live
2000100053,Alight Media,D48,"185 Walton Breck Rd, Liverpool",Liverpool,L4 0RG,53.43017277,-2.96250054,Live
2000100054,Alight Media,D48,Watery Lane Middleway,Birmingham,B9 4HA,52.47707038,-1.87530007,Live
2000100055,Alight Media,D48,185 Lawley Middleway,Birmingham,B4 7XT,52.4821654,-1.87888963,Live
2000113400,Alight Media,D48,"Newmarket Road, Cambridge",Cambridge,CB5 8LN,52.2133329,0.154086,Live
2000113407,Alight Media,D48,"164 Ealing Broadway, London",Hanwell,W7 3PS,51.5096763,-0.3286873,Live
2000113415,Alight Media,DM6,"University Road West, Salford",Salford,M5 4XW,53.4847132,-2.2743196,Live
2000117713,Alight Media,DM6,"Lower Parliament Street, Nottingham",Nottingham,NG1 1DP,52.9534527,-1.1396292,Live
2000117794,Alight Media,D48,"527 Main Road, Coatbridge",Coatbridge,ML5 3RX,55.861477,-4.003201,Live
2000117795,Alight Media,D48,"A5063, Albion Way, Manchester",Salford,M5 4DG,53.4802905,-2.2802151,Live
2000117796,Alight Media,D48,"Hyde Road, Manchester",Manchester,M12 5AQ,53.468032,-2.210448,Live
2000117797,Alight Media,D48,"Hyde Road, Manchester",Manchester,M12 5AQ,53.46807173,-2.21057941,Live
2000117818,Alight Media,D48,"Birmingham Road, West Bromwich",West Bromwich,B71 4LF,52.5101788,-1.963811,Live
2000117819,Alight Media,D48,"Birmingham Road, West Bromwich",West Bromwich,B71 4LF,52.5101794,-1.9637981,Live
2000117820,Alight Media,D48,"Clifton Hall Road, Edinburgh",Uphall Newbridge,EH28 8PA,55.938051,-3.403434,Live
2000117821,Alight Media,D48,"Clifton Hall Road, Edinburgh",Uphall Newbridge,EH28 8PA,55.938051,-3.403434,Live
2000117823,Alight Media Changed,D48,"8 Kinmel St, Rhyl",Rhyl,LL18 1AN,53.3192782,-3.4888884,Live
2000117825,Alight Media,D48,"Centenary Way, Burnley",Burnley,BB11 2EJ,53.7889189,-2.2381333,Live
2000117833,Alight Media,D48,"Great Howard Street, Liverpool",Liverpool,L3 7HS,53.4147621,-2.996087,Live
2000134712,Alight Media,D48,"114 York Road, Leeds",Leeds,LS9 7PJ,53.797977,-1.5199133,Live
2000134713,Alight Media,D48,"Kier Hardie Way, Sunderland",Sunderland,SR5 1DG,54.9155876,-1.3843019,Live
2000153002,Alight Media,D48,"A1231, Pallion New Road, Sunderland",Sunderland,SR4 6EE,54.9107805,-1.4022681,Live
2000153003,Alight Media,D48,"Queen Street, Wigan",Wigan,WN3 4DY,53.5428557,-2.6331871,Live
2000178744,Alight Media,D48,"100 Wellington Street, Slough",Slough,SL1 1UL,51.50891056,-0.58501819,Live
2000178745,Alight Media,D48,"100 Wellington Street, Slough",Slough,SL1 1UL,51.5089129,-0.58502838,Live
2000178764,Alight Media,D48,"Lower Parliament Street, Nottingham",Nottingham,NG1 1GN,52.95048295,-1.13864276,Live
2000187987,Alight Media,D48,"365-367 Blackpool Road, Preston",Preston,PR2 3AB,53.7732199,-2.7154371,Live
2000187988,Alight Media,D48,"39 Pembroke Place, City Centre, Liverpool",Liverpool,L3 5PH,53.4088974,-2.9689499,Live
2000188287,Alight Media,D48,"717 Stratford Road, Birmingham",Birmingham,B11 4DN,52.4462518,-1.8601205,Live
2000188288,Alight Media,D48,"167 Stratford Road, Solihull, Birmingham",Solihull,B90 3AX,52.4139141,-1.8277156,Live
2000188814,Alight Media,D48,"148 Gravelly Hill, Birmingham",Birmingham,B23 6BA,52.5214128,-1.8446625,Live
2000188815,Alight Media,D48,"95 Tyburn Road, Birmingham",Birmingham,B24 8NP,52.5075242,-1.8545858,Live
2000188819,Alight Media,D48,"Oxford Street, Bilston, Wolverhampton",Wolverhampton,WV14 0PR,52.5613913,-2.0629076,Live
2000188821,Alight Media,D48,"5 Star Blinds, 217 Manchester Road, Oldham",Oldham,OL8 4QY,53.5240207,-2.1394637,Live
2000188822,Alight Media,D48,"Upper York Street, Leeds Road, Wakefield",Wakefield,WF1 3LQ,53.6864513,-1.4996388,Live
2000188823,Alight Media,D48,"George Street Car Park, Kirkgate, Wakefield",Wakefield,WF1 1NE,53.68094,-1.4930043,Live
2000188828,Alight Media,D48,"24 St Anns Road, Rotherham",Rotherham,S65 1RQ,53.4386271,-1.3518426,Live
2000188829,Alight Media,D48,"Apollo, Palladium Buildings, Waterloo Road, Blackpool",Blackpool,FY4 2AA,53.7990774,-3.0493717,Live
2000188834,Alight Media,D48,"102 Bevois Valley Road, Sourthampton",Southampton,SO14 0JZ,50.9178008,-1.3953516,Live
2000188835,Alight Media,D48,"254 Bradford Road, Manchester",Manchester,M40 7BT,53.4903074,-2.2030077,Live
2000188837,Alight Media,D48,"Whitehall Road, Leeds",Leeds,LS12 6HY,53.7884107,-1.5708532,Live
2000188840,Alight Media,D48,"Centenary Circle, Trafford Park, Manchester",Salford,M50 1RF,53.48138,-2.3253469,Live
2000188841,Alight Media,D48,"Centenary Circle, Trafford Park, Manchester",Salford,M50 1RF,53.4814918,-2.3255539,Live
2000188842,Alight Media,D48,"West Hendon Broadway, London",Hendon,NW9 7AL,51.5737425,-0.2352881,Live
2000188843,Alight Media,D48,"West Hendon Broadway, London",Hendon,NW9 7AL,51.5733334,-0.2347999,Live
2000192536,Alight Media,D48,Pasteur Lane,Great Yarmouth,NR31 0DS,52.60532663,1.72058251,Live
2000192541,Alight Media,D48,Ye Old Woolpack Brinksway,Stockport,SK3 0BY,53.4071655,-2.17392618,Live
2000192542,Alight Media,D48,Ye Old Woolpack Brinksway,Stockport,SK3 0BY,53.40718848,-2.17393154,Live
2000192543,Alight Media,D48,JP Emporium Soho Road,Birmingham,B21 9LP,52.50318927,-1.93322729,Live
2000192544,Alight Media,D48,48 Station Street,Burton Upon Trent,DE14 1AX,52.80388957,-1.6335783,Live
2000192545,Alight Media,D48,12 Mill Street,Cannock,WS11 0DL,52.68848605,-2.02780632,Live
2000192547,Alight Media,D48,Rowley Green Industrial Estate Coronel Avenue,Coventry,CV6 6AP,52.4496005,-1.49889329,Live
2000192552,Alight Media,D48,Dixon Street,Lincoln,LN6 7XN,53.21926377,-0.55023437,Live
2000192553,Alight Media,D48,Dixon Street,Lincoln,LN6 7XN,53.21926377,-0.55022364,Live
2000192554,Alight Media,D48,80 Leicester Road,Loughborough,LE11 2AG,52.768109,-1.200886,Live
2000192556,Alight Media,D48,Cattle Market Road,Nottingham,NG2 3BL,52.94370771,-1.13861898,Live
2000192560,Alight Media,D48,"123 London Road, Hemel Hempstead",Hemel Hempstead,HP3 9SQ,51.73743516,-0.46847374,Live
2000192562,Alight Media,D48,Northfield Avenue jct of Northampton Road,Kettering,NN16 8TP,52.39559816,-0.73265344,Live
2000192563,Alight Media,D48,1 Comberton Place,Kidderminster,DY10 1QR,52.38488204,-2.24003068,Live
2000192565,Alight Media,D48,263 Nottingham Road,Nottingham,NG7 7DA,52.97739379,-1.16780354,Live
2000192566,Alight Media,D48,340 Porchester Road,Nottingham,NG3 6GR,52.98143626,-1.12600705,Live
2000192567,Alight Media,D48,340 Porchester Road,Nottingham,NG3 6GR,52.98140881,-1.12620285,Live
2000192569,Alight Media,D48,1 Chalk Hill,Watford,WD19 4BL,51.64670079,-0.38395663,Live
2000192575,Alight Media,D48,Great Howard Street (Inbound),Liverpool,L3 7HY,53.41294589,-2.99691162,Live
2000192577,Alight Media,D48,"St Marys Gate, Rochdale",Rochdale,OL12 0NS,53.61992066,-2.15722336,Live
2000192578,Alight Media,D48,162 West Street,Glasgow South,G5 8BN,55.8510291,-4.26576124,Live
2000192579,Alight Media,D48,"649 Anlaby Road, Hull",Hull,HU3 6SX,53.74333424,-0.38568762,Live
2000195013,Alight Media,D48,"81 Ratcliffe Gate, Mansfield",Mansfield,NG18 2JB,53.14245641,-1.18753439,Live
2000195014,Alight Media,D48,"Greylaw House, Mersey Square, Stockport",Stockport,SK1 1LZ,53.40980993,-2.16052517,Live
2000195105,Alight Media,D48,"Saltley Road, c.o Goodrick Way, Birmingham",Birmingham,B7 4TE,52.49236972,-1.86805068,Live
2000195107,Alight Media,D48,"325 City Road, Stoke On Trent",Stoke On Trent,ST4 3AQ,52.9991603,-2.16295092,Live
2000195108,Alight Media,D48,"Kelham Street, A630, Doncaster",Doncaster,DN1 3RE,53.51404439,-1.13884899,Live
2000195166,Alight Media,D48,"York Road c/n Raby Road, Hartlepool",Hartlepool,TS26 8AS,54.68886033,-1.21643183,Live
2000195167,Alight Media,D48,"Tonge Moor Road, Bolton",Bolton,BL2 2DH,53.58589837,-2.41568949,Live
2000195168,Alight Media,DM6,"Islington, Liverpool",Liverpool,L3 8LD,53.41166755,-2.9720772,Live
2000195193,Alight Media,DM6,"Islington, Liverpool",Liverpool,L3 8LD,53.41166755,-2.97209329,Live
2000196025,Alight Media,D48,Dunningsbridge Road Liverpool,Bootle,L30 6YW,53.4848412,-2.9605312,Live
2000196031,Alight Media,D48,"73 Barnsley Road, Rotherham",Mexborough,S63 6DG,53.50522463,-1.35600364,Live
2000196032,Alight Media,D48,"3 Blue Street, Boston",Boston,PE21 8UW,52.97387172,-0.02808582,Live
2000196033,Alight Media,D48,"92 Stechford Lane, Stechford, Birmingham",Birmingham,B8 2AN,52.49049869,-1.81570576,Live
2000196034,Alight Media,D48,"27 Harlaxton Road, Grantham",Grantham,NG31 7SA,52.90196074,-0.65156106,Live
2000196036,Alight Media,D48,"73 Old Shoreham Road, Hove",Hove,BN3 7PE,50.83906484,-0.17669709,Live
2000196037,Alight Media,D48,"Land at Mount Pleasant, Chatham",Chatham,ME5 7AY,51.37872591,0.53529909,Live
2000196038,Alight Media,D48,"530 Queens Road, Sheffield",Sheffield,S2 4DU,53.36491339,-1.47096412,Live
2000196044,Alight Media,D48,"299-301 Duke Street, Barrow-in-Furness",Barrow In Furness,LA14 5UL,54.1180505,-3.23803773,Live
2000196046,Alight Media,D48,"Land at Moorgate, Bury",Bury,BL9 6AN,53.5970103,-2.28887379,Live
2000196418,Alight Media,D48,Alum Rock,Birmingham,B8 1NJ,52.48889133,-1.85144598,Live
2000196419,Alight Media,D48,Adj Lex Mead Bromford Lane,Birmingham,B24 8DJ,52.50968054,-1.83329753,Live
2000196420,Alight Media,D48,624 Bearwood Road,Warley,B66 4BW,52.47253299,-1.96864402,Live
2000196421,Alight Media,D48,1228 Kingsbury,Birmingham,B35 6AE,52.52438309,-1.79192032,Live
2000196422,Alight Media,D48,12-24 Bordesley Green Rd,Birmingham,B9 4UD,52.47721199,-1.8564716,Live
2000196423,Alight Media,D48,147 Hamilton Road,Cambuslang,G72 8TH,55.8138125,-4.15027918,Live
2000196424,Alight Media,D48,287 Coventry Rd,Birmingham,B10 0RA,52.47299253,-1.86711697,Live
2000196425,Alight Media,D48,287 Coventry Rd,Birmingham,B10 0RA,52.47283438,-1.86679377,Live
2000196426,Alight Media,D48,"Bath Street, Barrow-in-Furness",Barrow In Furness,LA14 5TS,54.12024084,-3.23781238,Live
2000196427,Alight Media,D48,"Bath Street, Barrow-in-Furness",Barrow In Furness,LA14 5TS,54.12014667,-3.23780473,Live
2000196428,Alight Media,D48,Guinness Road,Stretford,M17 1RW,53.474609,-2.332331,Live
2000196429,Alight Media,D48,Guinness Road,Stretford,M17 1RW,53.474609,-2.332331,Live
2000196430,Alight Media,D48,"Heartlands Parkway, Nechells fcg S B7",Birmingham,B7 5AB,52.49338999,-1.86612924,Live
2000196431,Alight Media,D48,"Heartlands Parkway, Nechells fcg S B7",Birmingham,B7 5AB,52.49340142,-1.86610376,Live
2000196432,Alight Media,D48,55 New North Rd,Shoreditch,N1 6JB,51.53095,-0.086121,Live
2000196433,Alight Media,D48,Victoria Medical Centre,Barnsley,S75 2AE,53.55622585,-1.4918469,Live
2000196434,Alight Media,D48,Victoria Medical Centre,Barnsley,S75 2AE,53.55605138,-1.49178347,Live
2000196435,Alight Media,D48,308 Torquay Road,Paignton,TQ3 2DZ,50.44712717,-3.55842545,Live
2000196436,Alight Media,D48,144 Cheetham Hill Road,Manchester,M8 8PZ,53.49476821,-2.23933703,Live
2000196437,Alight Media,D48,Walsall Street,Wolverhampton,WV13 2EX,52.58309673,-2.05292503,Live
2000196438,Alight Media,D48,Church Street,Wolverhampton,WS10 8RD,52.56027362,-2.04483117,Live
2000196439,Alight Media,D48,61 Hylton Road,Sunderland,SR4 7AB,54.90666337,-1.39715925,Live
2000196440,Alight Media,D48,30 Inchinnan Road,Paisley,PA3 2PR,55.85593598,-4.42651153,Live
2000196441,Alight Media,D48,Dunn Street,Glasgow North,G40 3PE,55.84697105,-4.21648081,Live
2000196442,Alight Media,D48,Elliott Street,Glasgow North,G3 8EX,55.8599309,-4.27762581,Live
2000196443,Alight Media,D48,Elliott Street,Glasgow North,G3 8EX,55.859934,-4.277642,Live
2000196444,Alight Media,D48,Stamford Hill,Stoke Newington,N16 5SR,51.56574319,-0.07322983,Live
2000196445,Alight Media,D48,Borough Road,Sunderland,SR1 1PA,54.90485068,-1.37739223,Live
2000196446,Alight Media,D48,Wellington Road,Stockport,SK4 1HW,53.41300765,-2.16723129,Live
2000196447,Alight Media,D48,Causewayside Street,Glasgow North,G32 8LP,55.83760223,-4.17165364,Live
2000197120,Alight Media,D48,32 Glasgow Road,Barrhead,G78 1BU,55.80543175,-4.38157563,Live
2000197121,Alight Media,D48,393 Ashley Road,Poole,BH14 0AT,50.72897025,-1.94279281,Live
2000197122,Alight Media,D48,Bath Road,Reading,RG30 2EU,51.44447221,-1.01829805,Live
2000197123,Alight Media,D48,Grove Lane,Birmingham,B20 2HA,52.51358523,-1.93460146,Live
2000197126,Alight Media,D48,264 Rainham Road,Dagenham,RM10 7UU,51.55079755,0.16141415,Live
2000197127,Alight Media,D48,West Hendon Broadway,Hendon,NW9 7DE,51.57850923,-0.2409159,Live
2000197128,Alight Media,D48,Maxwellton Street,Paisley,PA1 2UA,55.84289449,-4.44017067,Live
2000197131,Alight Media,D48,76a and 78 Milnrow Road,Rochdale,OL16 5BZ,53.61284986,-2.14524584,Live
2000197139,Alight Media,D48,"Station Road, Opp Ty-Mawr Rd, Llandaff",Cardiff,CF14 2FH,51.50649988,-3.22832429,Live
2000197143,Alight Media,D48,"Land on the North East Side of Victoria Road, Stoke on Trent",Stoke On Trent,ST4 2HG,53.00703721,-2.16422362,Live
2000197145,Alight Media,D48,455 Alfreton Road,Nottingham,NG7 5LX,52.963606,-1.176576,Live
2000197147,Alight Media,D48,449 Cannock Rd,Wolverhampton,WV10 0RE,52.59971975,-2.10875776,Live
2000197148,Alight Media,D48,"1, 2, 3 and 7 Northern Buildings, Northern Road",Portsmouth,PO6 3DN,50.84561933,-1.06927879,Live
2000197151,Alight Media,D48,"45 East Street, Portchester (A27)",Portchester,PO16 9XT,50.846955,-1.120169,Live
2000197152,Alight Media,D48,50 Stonebridge Road,Gravesend,DA11 9DS,51.44810999,0.32273666,Live
2000197153,Alight Media,D48,Land adjoining 39 Bradford Road,Otley,LS21 3EH,53.90319467,-1.70155689,Live
2000197154,Alight Media,D48,"Bradford Road, Keighley, Bradford",Keighley,BD21 4BL,53.87013992,-1.89953985,Live
2000197155,Alight Media,D48,7 Poplar Terrace,Bingley,BD16 1DR,53.844028,-1.834078,Live
2000197157,Alight Media,D48,"Land and buildings on the east side of Wakefield Road, Stourton",Leeds,LS10 1SF,53.77157281,-1.51639467,Live
2000197158,Alight Media,D48,"Land and buildings on the east side of Wakefield Road, Stourton",Leeds,LS10 1SF,53.77158106,-1.51639721,Live
2000197165,Alight Media,D48,Purewell Cross / Somerford Road,Christchurch,BH23 3PH,50.73601934,-1.75895375,Live
2000197166,Alight Media,D48,Land at Radford Road,Coventry,CV6 3BU,52.42265708,-1.52157389,Live
2000197169,Alight Media,D48,"1, Abbotsbury Road",Weymouth,DT4 0AJ,50.61192729,-2.46058132,Live
2000197170,Alight Media,D48,Opp. 7/10 Church Street,Ilfracombe,EX34 8HA,51.20594689,-4.1261123,Live
2000197174,Alight MediaTTTT,D48,East Side of Station Road,Cromer Sheringham,NR27 0HF,52.91839179,1.30791384,Live
2000197177,Alight Media,D48,Land on the West Side of Manor Road,Wolverhampton,WV4 6JS,52.56614365,-2.10164665,Live
2000197181,Alight Media,D48,299 Torquay Road (A3022),Paignton,TQ3 2EY,50.44710874,-3.55841992,Live
2000197182,Alight Media,D48,16 High Road,Southampton,SO16 2JH,50.93711165,-1.38017963,Live
2000197184,Alight Media,D48,Land and buildings on the west side of Macon Way,Crewe,CW1 6DA,53.09764863,-2.43073116,Live
2000197185,Alight Media,D48,28 to 36 (Even) Mill Street and 2 Camm Street,Crewe,CW2 7AJ,53.08995138,-2.43888589,Live
2000197188,Alight Media,D48,24 Humber Road,Coventry,CV3 1AY,52.40359416,-1.48710783,Live
2000197190,Alight Media,D48,Land at Oldham Road,Manchester,M40 2AB,53.49741,-2.20535,Live
2000197479,Alight Media,D48,1a Minstead Road,Birmingham,B24 8PT,52.50943349,-1.85812355,Live
2000197480,Alight Media,D48,"155 and 157 Muntz Street, Small Heath",Birmingham,B10 9SJ,52.47289315,-1.85460243,Live
2000197515,Alight Media,D48,"Cape Hill Retail Centre, Smethwick",Warley,B66 4PH,52.48658458,-1.95692579,Live
2000197516,Alight Media,D48,"Cape Hill Retail Centre, Smethwick",Warley,B66 4PH,52.4865847,-1.9569334,Live
2000197527,Alight Media,D48,City Road opp Old Mill Street,Stoke On Trent,ST4 1DP,53.0023209,-2.17738018,Live
2000197528,Alight Media,D48,City Road opp Old Mill Street,Stoke On Trent,ST4 1DP,53.00232784,-2.17750182,Live
2000197529,Alight Media,D48,254 Wheelwright Road,Birmingham,B24 8DT,52.50915202,-1.83416047,Live
2000197532,Alight Media,D48,Gelderd Road/Low Lane,Batley,WF17 9ER,53.7319108,-1.65833688,Live
2000197536,Alight Media,D48,Land at Eagles Meadow,Wrexham,LL13 8DJ,53.04407078,-2.98889248,Live
2000197538,Alight Media,D48,Land on the north west of Old Wareham Road,Poole,BH12 4QS,50.74111378,-1.95363229,Live
2000197543,Alight Media,D48,"Doncaster Road, Wakefield",Wakefield,WF1 5HA,53.669835,-1.476164,Live
2000197545,Alight Media,D48,Land at Oldham Road,Manchester,M40 2AB,53.49741225,-2.20533434,Live
2000197641,Alight Media,D48,345 Bearwood Road,Warley,B66 4DB,52.48061171,-1.96940246,Live
2000197644,Alight Media,D48,Canal Road,Bradford,BD1 4RB,53.80535369,-1.75380034,Live
2000197646,Alight Media,D48,"Woodfields Retail Park, Peel Way Inbound",Bury,BL9 5BY,53.59583628,-2.29489974,Live
2000197647,Alight Media,D48,"Woodfields Retail Park, Peel Way Outbound",Bury,BL9 5BY,53.59583543,-2.2949043,Live
2000197650,Alight Media,D48,Greenstead Road,Colchester,CO1 2SJ,51.88694514,0.92827177,Live
2000197651,Alight Media,D48,560 Main Road,Harwich,CO12 4HJ,51.9336069,1.25655327,Live
2000197652,Alight Media,D48,53 Carnarvon Rd,Clacton,CO15 6QB,51.79303136,1.15381222,Live
2000197667,Alight Media,D48,Land at Chadderton Road  Inbound,Middleton,M24 1QZ,53.54726575,-2.19967152,Live
2000197668,Alight Media,D48,Land at Chadderton Road  Outbound,Middleton,M24 1QZ,53.54716919,-2.19913494,Live
2000197674,Alight Media,D48,400 North Circluar,Neasden,NW10 0AB,51.55407775,-0.25319761,Live
2000197675,Alight Media,D48,"Sandbrook Way, Rochdale",Rochdale,OL11 1RY,53.60037752,-2.16560135,Live
2000197678,Alight Media,D48,Deepdale Shopping Park,Preston,PR1 6QY,53.77248082,-2.67880861,Live
2000197679,Alight Media,D48,"Snooty Fox, Haslett Avenue East, Crawley",Crawley,RH10 1LX,51.11865022,-0.16129143,Live
2000197684,Alight Media,D48,"Grey Street, Manchester Road, Warrington",Warrington,WA1 2PH,53.39252508,-2.58454204,Live
2000197686,Alight Media,D48,Priestley Street Opp Priestley Business Park Warrington,Warrington,WA5 1ST,53.3910701,-2.60752486,Live
2000197687,Alight Media,D48,Priestley Street Opp Priestley Business Park Warrington,Warrington,WA5 1ST,53.39107343,-2.60751495,Live
2000197768,Alight Media,D48,"St Mary's Gate, Rochdale",Rochdale,OL12 0NS,53.61992066,-2.15722336,Live
2000197769,Alight Media,D48,"London Road, Stoke On Trent",Stoke On Trent,ST4 7QH,53.00144902,-2.18754656,Live
2000197770,Alight Media,D48,"572 Melton Road, Thurmaston, Leicester",Leicester,LE4 8BB,52.67295756,-1.10444004,Live
2000197771,Alight Media,D48,"Regents Street, Counterpoint, Wrexham",Wrexham,LL11 1PF,53.04947655,-3.00146025,Live
2000197773,Alight Media,D48,"Ashfield Mill, Active Way, Burnley",Burnley,BB11 1BS,53.79127878,-2.24831949,Live
2000197952,Alight Media,D48,"27 Church Street, Carlisle",Carlisle,CA2 5TJ,54.894474,-2.94667,Live
2000197953,Alight Media,D48,"27 Church Street, Carlisle",Carlisle,CA2 5TJ,54.894474,-2.94667,Live
2000197958,Alight Media,D48,Grove Lane,Birmingham,B20 2HA,52.5135831,-1.93460857,Live
2000201203,Alight Media,D48,"418 Coventry Road, Birmingham",Birmingham,B10 0UF,52.47094892,-1.86119974,Live
2000201204,Alight Media,D48,"Buzz Ainsworth Street, Blackburn",Blackburn (Lancs),BB1 6AF,53.75120048,-2.48031001,Live
2000201205,Alight Media,D48,"Mayfield Motors Bolton Road, Blackburn",Blackburn (Lancs),BB2 3QN,53.73956743,-2.48573658,Live
2000201207,Alight Media,D48,"Manchester Road, Nelson",Nelson,BB9 7SJ,53.83043126,-2.22804417,Live
2000201210,Alight Media,D48,"International House, Griffin Lane, Aylesbury",Aylesbury,HP19 8BP,51.82218694,-0.83027047,Live
2000201211,Alight Media,D48,"Self Store, Cleveland Street, Hull",Hull,HU8 7BE,53.75294521,-0.32716587,Live
2000201212,Alight Media,D48,2-12 New Cleveland Street (A1165),Hull,HU8 7EX,53.75294212,-0.32716838,Live
2000201216,Alight Media,D48,"Palace Bingo The Crescent, Felixstowe",Felixstowe,IP11 7NL,51.96396238,1.35106235,Live
2000201222,Alight Media,D48,"24 High Street, Rochester, Kent",Rochester,ME2 4AP,51.39457109,0.4975826,Live
2000201225,Alight Media,D48,"Spytty Road, South Distribution Rd, Newport",Newport (Newport),NP19 4ED,51.57512541,-2.96322838,Live
2000201226,Alight Media,D48,"Spytty Road, South Distribution Rd, Newport",Newport (Newport),NP19 4ED,51.57512834,-2.96324349,Live
2000201229,Alight Media,D48,"188 Beatrice Street, Swindon",Swindon,SN2 1BD,51.56843797,-1.78360976,Live
2000201231,Alight Media,D48,"Neachells Lane, Wolverhampton",Wolverhampton,WV13 3RP,52.5878159,-2.07722027,Live
2000201587,Alight Media,D48,"Dainton Self Storage, Bristol Road, Gloucester",Gloucester,GL2 5DH,51.84133703,-2.26720401,Live
2000201641,Alight Media,D48,"Rodbourne Road Roundabout, Swindon",Swindon,SN2 2AX,51.56812662,-1.80186602,Live
2000201642,Alight Media,D48,"Rodbourne Road Roundabout, Swindon",Swindon,SN2 2AX,51.56824832,-1.80219091,Live
2000202402,Alight Media,D48,"Church Street, Wolverhampton",Wolverhampton,WS10 8RD,52.56027362,-2.04483117,Live
2000202488,Alight Media,D48,"Faraday House, 118 Holyhead Road, Coundon, Coventry",Coventry,CV1 3LY,52.41184813,-1.52517841,Live
2000202491,Alight Media,D48,"Waveney Mills, Southtown Road, Great Yarmouth",Great Yarmouth,NR31 0JB,52.60455501,1.72149272,Live
2000202496,Alight Media,D48,"Burnham Gate, Burnley",Burnley,BB11 1TQ,53.7864302,-2.25024717,Live
2000202497,Alight Media,D48,"Currock Rd/Crown St Roundabout, Carlisle",Carlisle,CA2 5AE,54.89027497,-2.92975492,Live
2000202498,Alight Media,D48,"47 Town Rd/Hulton St, Stoke On Trent",Stoke On Trent,ST1 6AU,53.03274671,-2.17022574,Live
2000202499,Alight Media,D48,"The Heart Of Oak PH, Newtown Road, Hereford",Hereford,HR4 9LJ,52.06394204,-2.7171159,Live
2000202500,Alight Media,D48,"Land at Trinity Street, Bolton",Bolton,BL3 6DH,53.57389039,-2.43261844,Live
2000202501,Alight Media,D48,"St Davids Retail Park High Street, Chester [WALES]",Chester,CH4 8SN,53.17789483,-2.93078514,Live
2000202502,Alight Media,D48,"Skegness Cricket Club, Richmond Drive, Skegness",Skegness,PE25 3PG,53.14218318,0.3350501,Live
2000202931,Alight Media,D48,"15 Crawley Road, Luton",Luton,LU1 1HX,51.88328368,-0.4214855,Live
2000202932,Alight Media,D48,"628 Blackburn Road, Haslingden, Accrington",Accrington,BB5 2SB,53.72630794,-2.33385256,Live
2000202982,Alight Media,D48,"17 Moorland Road, Stoke On Trent",Stoke On Trent,ST6 1DS,53.04620241,-2.19513682,Live
2000203266,Alight Media,D48,"40B Albert Road, Farnworth, Bolton",Farnworth,BL4 7BB,53.54880323,-2.40161509,Live
2000204162,Alight Media,D48,"186 Lockhurst Lane, Coventry",Coventry,CV6 5NJ,52.43071354,-1.5033006,Live
2000204169,Alight Media,D48,"21 New Buildings, Hinckley",Hinckley,LE10 1HN,52.54320722,-1.36863051,Live
2000204171,Alight Media,D48,"Station Road, Langley Mill, Derbyshire",Heanor,NG16 4BG,53.01825952,-1.33962345,Live
2000204172,Alight Media,D48,"St James WMC Weedon Rd, Northampton",Northampton,NN5 5BE,52.23988878,-0.91613279,Live
2000204173,Alight Media,D48,"Pondwood House Redhouse Road, Northampton",Northampton,NN3 6RT,52.27763666,-0.86472726,Live
2000204175,Alight Media,D48,"The Mall Luton, Luton",Luton,LU1 2LJ,51.87987292,-0.41092615,Live
2000204181,Alight Media,D48,109 Reddish Lane,Denton,M34 2NF,53.45448463,-2.15799649,Live
2000204182,Alight Media,D48,119/121 Teignmouth Rd,Torquay,TQ1 4HA,50.47975913,-3.53641165,Live
2000204184,Alight Media,D48,"1191 Stratford Road, Hall Green",Birmingham,B28 8BX,52.43621154,-1.84681314,Live
2000204185,Alight Media,D48,"123 Broadway, (A3055) L",Sandown (I O W),PO36 9AQ,50.66169509,-1.15324001,Live
2000204186,Alight Media,D48,141 Prescot Road,Liverpool,L7 0LB,53.41320731,-2.93976719,Live
2000204188,Alight Media,D48,15 Ystrad Road,Rhondda,CF41 7PH,51.6503785,-3.48789746,Live
2000204189,Alight Media,D48,"186 Old Road, Clacton-on-sea",Clacton,CO15 3LR,51.79623186,1.14936251,Live
2000204190,Alight Media,D48,188 Manchester Road,Huddersfield,HD1 3JB,53.64089468,-1.79675594,Live
2000204191,Alight Media,D48,2 Gordon Street,Colne,BB8 0NE,53.85899423,-2.16273497,Live
2000204192,Alight Media,D48,224 Market Street,Hyde,SK14 1HB,53.44716104,-2.0755562,Live
2000204193,Alight Media,D48,"2-3 London Road, Dover",Dover,CT17 0ST,51.13060782,1.30505711,Live
2000204194,Alight Media,D48,244-246 High Street,Enfield,EN3 4EZ,51.64637724,-0.04710097,Live
2000204195,Alight Media,D48,3 Cherry Tree Avenue,Dover,CT16 2NH,51.13428385,1.30084348,Live
2000204196,Alight Media,D48,"319-325 Aston Lane, Witton Road",Birmingham,B6 6PN,52.51230921,-1.88683486,Live
2000204197,Alight Media,D48,34 Pincheon Street,Wakefield,WF1 4DT,53.68241114,-1.49168967,Live
2000204198,Alight Media,D48,363 Sydenham Road,Sydenham,SE26 5SL,51.42870024,-0.03786308,Live
2000204199,Alight Media,D48,460 Linthorpe Road,Middlesbrough,TS5 6JG,54.56045339,-1.2426931,Live
2000204200,Alight Media,D48,539 Parkfield Road,Wolverhampton,WV4 6EL,52.56650177,-2.10467808,Live
2000204201,Alight Media,D48,58 Lozells Road,Birmingham,B19 2TJ,52.50267765,-1.90429805,Live
2000204202,Alight Media,D48,619 Stoney Stanton Road,Coventry,CV6 5GA,52.42663371,-1.49225864,Live
2000204203,Alight Media,D48,64 London Road,Neath,SA11 1LB,51.6574014,-3.80507826,Live
2000204205,Alight Media,D48,689 Bristol Rd South,Birmingham,B31 2JT,52.41741882,-1.96863252,Live
2000204206,Alight Media,D48,83 Rochdale Old Road,Bury,BL9 7LP,53.59867827,-2.27197317,Live
2000204209,Alight Media,D48,"Blackbird Road, Parker Dive",Leicester,LE4 0DF,52.65098646,-1.14272569,Live
2000204210,Alight Media,D48,"Blackbird Road, Parker Dive (Panel 2)",Leicester,LE4 0DF,52.65089924,-1.14229117,Live
2000204211,Alight Media,D48,Castlehill Road,Wishaw,ML2 0RL,55.7650601,-3.9319112,Live
2000204212,Alight Media,D48,Castlehill Road (panel 2),Wishaw,ML2 0RL,55.76511804,-3.93185219,Live
2000204213,Alight Media,D48,Dawson Street,Heywood,OL10 4ND,53.59441916,-2.22114294,Live
2000204214,Alight Media,D48,Gun Lane,Rochester,ME2 4UH,51.39785468,0.4950636,Live
2000204215,Alight Media,D48,Kings Head Hill,Chingford,E4 7PP,51.63576322,-0.01240464,Live
2000204217,Alight Media,D48,Land On The South-West Side Of 39 Derby Street (panel 2),Bolton,BL3 6HE,53.57304881,-2.43471682,Live
2000204218,Alight Media,D48,"Land On The South-West Side Of 39 Derby Street,",Bolton,BL3 6HE,53.57309722,-2.43466948,Live
2000204219,Alight Media,D48,"Lochee Burns Social Club, 5 Old Muirton Road, Lochee",Dundee,DD2 3TY,56.46990818,-3.00585188,Live
2000204220,Alight Media,D48,Manchester Road,Bradford,BD5 7LX,53.78030108,-1.76036149,Live
2000204221,Alight Media,D48,"Mansfield Road, Sutton in Ashfield",Sutton In Ashfield,NG17 4HH,53.13245585,-1.24961035,Live
2000204222,Alight Media,D48,Milton Bridge,Gravesend,DA12 2PJ,51.43920326,0.38178242,Live
2000204223,Alight Media,D48,"New Hirst & District Social Club, 2 North Seaton Road",Ashington,NE63 0EH,55.18016095,-1.56803775,Live
2000204224,Alight Media,D48,"Royal Oak Ground, Main Road, Dovercourt",Harwich,CO12 4AA,51.93548545,1.27272859,Live
2000204225,Alight Media,D48,Somerford Place,Wolverhampton,WV13 3DZ,52.58309838,-2.06246214,Live
2000204226,Alight Media,D48,West End House,Sheppey,ME12 1NB,51.43322054,0.74810767,Live
2000204955,Alight Media,D48,"Regents Street, Counterpoint, Wrexham",Wrexham,LL11 1PF,53.04895406,-3.00101803,Live
2000205465,Alight Media,D48,"Purewell Cross / Somerford Road, Christchurch",Christchurch,BH23 3PH,50.7360723,-1.75853439,Live
2000205466,Alight Media,D48,"Preston Street, Chorley Adlington",Chorley Adlington,PR7 1HE,53.66093974,-2.62907668,Live
2000208143,Alight Media,D48,"Land Opposite Warrington Station, Winwick Street, Warrington",Warrington,WA2 7TS,53.39195958,-2.59350747,Live
2000209383,Alight Media,D48,"Dereham Road, Norwich",Norwich,NR2 4BT,52.63302961,1.28103603,Live
2000209397,Alight Media,D48,"Colliers Way/Hall Park Way, Telford",Telford,TF3 4AG,52.68057934,-2.4500977,Live
2000209398,Alight Media,D48,"Rampart Way, Telford",Telford,TF3 4AS,52.67906317,-2.44171991,Live
2000209399,Alight Media,D48,"Rampart Way, Telford",Telford,TF3 4AS,52.67906888,-2.44172801,Live
2000209400,Alight Media,D48,"St Helens Delivery Office, 23 Liverpool Road",St Helens,WA10 1AA,53.45098801,-2.74120805,Live
2000209661,Alight Media,D48,"6a School Lane, Stokcport",Stockport,SK4 5DG,53.42805498,-2.17597105,Live
2000209662,Alight Media,D48,"Bedford Street/ Burdock Way, Halifax",Halifax,HX1 5DL,53.7225189,-1.86759304,Live
2000209665,Alight Media,D48,"Bedford Street/ Burdock Way, Halifax",Halifax,HX1 5DL,53.72252509,-1.86759263,Live
2000209666,Alight Media,D48,"Vans Northwest, East Haydock Lane, St Helens",St Helens,WA11 9UY,53.47283233,-2.66989545,Live
2000209667,Alight Media,D48,"52 Bristol Road, Gloucester",Gloucester,GL1 5SD,51.85565868,-2.25267656,Live
2000209668,Alight Media,D48,"Vans Northwest, East Haydock Lane, St Helens",St Helens,WA11 9UY,53.47283329,-2.66986863,Live
2000209685,Alight Media,D48,"245 Bury New Road, Salford",Manchester,M8 8DY,53.49892225,-2.25527512,Live
2000209742,Alight Media,D48,"Land and Bldgs on S/E Side of Worth Way, Keighley",Keighley,BD21 5JP,53.86240879,-1.90776329,Live
2000209751,Alight Media,D48,"622 Oldham Road, Manchester",Manchester,M40 8BA,53.4974149,-2.20532176,Live
2000209771,Alight Media,D48,"Land on the West side of Brigg Road, Scunthorpe",Scunthorpe,DN16 1AX,53.57692339,-0.62331717,Live
2000210700,Alight Media,D48,"98 Springbank, Hull",Hull,HU3 1QH,53.74985066,-0.35217754,Live
2000210758,Alight Media,D48,"67 Mallin Street, Smethwick",Warley,B66 1JG,52.5021764,-1.9911937,Live
2000210759,Alight Media,D48,"144 Gloucester Road North, Bristol",Bristol,BS34 7BQ,51.50955855,-2.574107,Live
2000210760,Alight Media,D48,"High Bullen, Wednesbury",West Bromwich,WS10 7NU,52.55402957,-2.02283365,Live
2000210761,Alight Media,D48,"Blackbird Crossroad Motors, 1 Blackbird Avenue, Leicester",Leicester,LE4 0AD,52.64752879,-1.14549005,Live
2000210762,Alight Media,D48,"6 Ashburnham Rd, Bedford",Bedford,MK40 1DX,52.13504861,-0.47730857,Live
2000210763,Alight Media,D48,"Land at Lower Lane, Bradford",Bradford,BD4 8QR,53.78060175,-1.73100758,Live
2000210816,Alight Media,D48,"Blackbird Crossroad Motors, 1 Blackbird Avenue, Leicester",Leicester,LE4 0AD,52.6475106,-1.14552597,Live
2000211795,Alight Media,D48,"5 Liverpool Road, Warrington",Warrington,WA5 1AE,53.38881181,-2.60657532,Live
2000211796,Alight Media,D48,"27&29 Trentham Road, Longston,",Stoke On Trent,ST3 4DF,52.98384741,-2.13428122,Live
2000214020,Alight Media,D48,Land and buildings to the west of Peel Place and Old Mill Lane,Barnsley,S71 1LU,53.56281322,-1.47117528,Live
2000214021,Alight Media,D48,"52 to 62 Bridge Street, Christchurch",Christchurch,BH23 1EG,50.73529432,-1.76931093,Live
2000214022,Alight Media,D48,"291 Commercial Road, Portsmouth",Portsmouth,PO1 4BP,50.80407526,-1.08745303,Live
2000214023,Alight Media,D48,"Clough Road, Hull",Hull,HU6 7PT,53.76781885,-0.34069011,Live
2000214046,Alight Media,D48,"237 Portland Road, Weymouth",Weymouth,DT4 9BH,50.58692917,-2.4724024,Live
2000214047,Alight Media,D48,"Molesworth Street, Rochdale",Rochdale,OL16 1TQ,53.61645361,-2.14997114,Live
2000214050,Alight Media,D48,"Stratford Road / Station Drive, Birmingham",Birmingham,B28 8AB,52.43699879,-1.84673754,Live
2000214080,Alight Media,D48,"1 Ratcliffe Gate, Mansfield",Mansfield,NG18 2JA,53.14355072,-1.19060483,Live
2000214092,Alight Media,D48,"38 Trinity Street, Stoke On Trent",Stoke On Trent,ST1 5LJ,53.02577935,-2.17848397,Live
2000214179,Alight Media,D48,"Greet Inn, Warwick Road, Tyseley",Birmingham,B11 2HP,52.45305003,-1.85250155,Live
2000214212,Alight Media,D48,"99 Glasgow Road, Cambuslang",Cambuslang,G72 7DW,55.82287633,-4.1807775,Live
2000214213,Alight Media,D48,130 Ferguslie,Paisley,PA1 2TQ,55.84020698,-4.46091276,Live
2000214214,Alight Media,D48,Crescent Social Club Dewsbury Road,Leeds,LS11 5LS,53.77294649,-1.54691108,Live
2000214233,Alight Media,D48,"Icknield Port Road, c/o Dudley Road",Birmingham,B18 7QX,52.48634109,-1.93683134,Live
2000214236,Alight Media,D48,Bordesley Green Road / Victoria Street,Birmingham,B9 4QP,52.47658712,-1.85683866,Live
2000214237,Alight Media,D48,"Golden Hillock, c/o Warwick Road, Birmingham",Birmingham,B11 2NB,52.4560576,-1.862243,Live
2000214239,Alight Media,D48,"322 Portland Road, Hove",Hove,BN3 5LP,50.83446295,-0.19585178,Live
2000214240,Alight Media,D48,Bordesley Green opp Fordrough Lane,Birmingham,B9 5NB,52.47793081,-1.84751697,Live
2000214241,Alight Media,D48,"Manchester Road, Huddersfield",Huddersfield,HD4 5BR,53.63982768,-1.8061809,Live
2000214242,Alight Media,D48,"463 Halifax Road, Smallbridge, Rochdale",Rochdale,OL12 9AB,53.634143,-2.13278543,Live
2000214285,Alight Media,D48,"Birmingham New Road (West), Wolverhampton",Wolverhampton,WV4 6EF,52.56673089,-2.11606492,Live
2000214522,Alight Media,D48,"Land on South side of Hyde Road, Denton, Tameside, Inbound",Denton,M34 3EH,53.45519105,-2.09910115,Live
2000214523,Alight Media,D48,"Land on South side of Hyde Road, Denton, Tameside, Outbound",Denton,M34 3EH,53.45518083,-2.09918162,Live
2000214677,Alight Media,D48,"2 Siddals Road, Derby",Derby,DE1 2PY,52.92095509,-1.46977879,Live
2000214773,Alight Media,D48,"Land on the North East Side of Victoria Road, Stoke on Trent",Stoke On Trent,ST4 2HG,53.00697368,-2.16421828,Live
2000214791,Alight Media,D48,"27 London Road, Dover",Dover,CT17 0SS,51.13157438,1.30406884,Live
2000214792,Alight Media,D48,"Britannia Tyres, Station Approach, Derby",Derby,DE1 2PW,52.92015007,-1.46731061,Live
2000214793,Alight Media,D48,"Cemetery Road, Bradford",Bradford,BD8 9RZ,53.79722089,-1.79192919,Live
2000214794,Alight Media,D48,"Speke Hall Road, Liverpool",Liverpool,L24 9HE,53.35242613,-2.86468718,Live
2000214795,Alight Media,D48,Marton Road_Middlesbrough,Middlesbrough,TS1 2EA,54.57223698,-1.22611668,Live
2000214827,Alight Media,D48,M53 Ford New Chester Road,Birkenhead,CH41 9FD,53.38289809,-3.01512086,Live
2000214828,Alight Media,D48,M53 Ford New Chester Road,Birkenhead,CH41 9FD,53.38292086,-3.0151301,Live
2000215215,Alight Media,D48,"114 - 116 Manningham Lane, Bradford",Bradford,BD8 7JF,53.80211702,-1.76064337,Live
2000215216,Alight Media,D48,ETB Whitecross Road,Hereford,HR4 0DG,52.05752383,-2.72519332,Live
2000215217,Alight Media,D48,Land and buildings lying to the north of Alberto Street,Stockton On Tees,TS18 2BQ,54.57201231,-1.31328549,Live
2000215218,Alight Media,D48,62 Monument Way,Tottenham,N17 9NX,51.58864183,-0.06781233,Live
2000215219,Alight Media,D48,"Land and buildings lying to the north of Alberto Street, Panel 2",Stockton On Tees,TS18 2BQ,54.57200625,-1.31327194,Live
2000215790,Alight Media,D48,"88 Gelderd Road, Leeds,",Batley,WF17 9QB,53.7355397,-1.65713746,Live
2000215791,Alight Media,D48,"265 Oldham Road, Failsworth",Failsworth,M35 0AS,53.50797789,-2.16464455,Live
2000215864,Alight Media,D48,"Stone Road, Hanford, Inbound",Stoke On Trent,ST4 8NS,52.98097556,-2.19959738,Live
2000215865,Alight Media,D48,"Stone Road, Hanford, Outbound",Stoke On Trent,ST4 8NS,52.9810317,-2.19958367,Live
2000219252,Alight Media,D48,"31-33 Easterhouse Rd, Glasgow",Baillieston,G69 6BH,55.86077977,-4.10797489,Live
2000222258,Alight Media,D48,Adj Rly Bridge Wooton Bassett Road,Swindon,SN5 8WG,51.55493038,-1.80809008,Live
2000243337,Alight Media,D48,"Britannia Works, Folds Road, Inbound",Bolton,BL1 2SE,53.58246725,-2.42345215,Live
2000243339,Alight Media,D48,"Britannia Works, Folds Road, Outbound",Bolton,BL1 2SE,53.58247175,-2.42344864,Live
2000243346,Alight Media,D48,"Bournemouth Road, Chandler's Ford, Inbound",Eastleigh,SO53 3DB,50.98152542,-1.38420956,Live
2000243347,Alight Media,D48,"Bournemouth Road, Chandler's Ford, Outbound",Eastleigh,SO53 3DB,50.98149638,-1.38424859,Live
2000243448,Alight Media,D48,"Rochdale Road East, Heywood",Heywood,OL10 4DX,53.59325422,-2.21065403,Live
2000243772,Alight Media,D48,"Thurmaston Lane, Leicester",Leicester,LE4 9JD,52.66218659,-1.08781497,Live
2000256139,Alight Media,D48,"Aeroplas Great Bridge, Tipton,",Dudley,DY4 7AB,52.53119537,-2.03566992,Live
2000256152,Alight Media,D48,"3 Cardiff Road, Luton",Luton,LU1 1PP,51.87956492,-0.4219244,Live
2000256166,Alight Media,D48,"1 The Broadway, Northolt Road",Harrow,HA2 0DL,51.56941362,-0.3471687,Live
2000256307,Alight Media,D48,"3 Ratcliffe Road, Loughborough",Loughborough,LE11 1LF,52.77935385,-1.20168695,Live
2000256324,Alight Media,D48,"Soho Hill, Birmingham",Birmingham,B19 1AY,52.49853812,-1.91870829,Live
2000256342,Alight Media,D48,"Shipley Bowling Club, Bradford Road",Shipley,BD18 3DE,53.82775742,-1.78033098,Live
2000256394,Alight Media,D48,130 Upwell Street,Sheffield,S4 8AJ,53.4058602,-1.43390001,Live
2000256557,Alight Media,D48,"Shipley Airedale Road, Bradford",Bradford,BD1 5HZ,53.79550149,-1.74340162,Live
2000256572,Alight Media,D48,"207 Halliwell Road,",Bolton,BL1 3QJ,53.59174233,-2.4360509,Live
2000256737,Alight Media,D48,Land on the north west of Old Wareham Road,Poole,BH12 4QS,50.74114049,-1.95356296,Live
2000256748,Alight Media,D48,"Humberstone Road, Leicester",Leicester,LE5 3AQ,52.64005952,-1.1153689,Live
2000257034,Alight Media,D48,"London Road, Carmyle",Glasgow North,G32 8YQ,55.83566844,-4.16333082,Live
2000257035,Alight Media,D48,"London Road, Carmyle - Contraflow",Glasgow North,G32 8YQ,55.83566693,-4.16336033,Live
2000257183,Alight Media,D48,"436 Carmarthen Road, Swansea",Swansea,SA5 8LN,51.63559624,-3.95828773,Live
2000259538,Alight Media,D48,Heartlands Parkway adj Railway Bridge,Birmingham,B7 5RQ,52.49948469,-1.85888361,Live
2000259539,Alight Media,D48,"Meridian Way, London",Edmonton,N18 3AF,51.61314546,-0.04760575,Live
2000259557,Alight Media,D48,"Wynsors Shoes, King Cross Road",Halifax,HX1 2SH,53.72068282,-1.86774956,Live
2000259558,Alight Media,D48,Dainton Self Storage,Newport (Newport),NP20 2RX,51.57042416,-2.99857405,Live
2000259559,Alight Media,D48,"Hartlepool RFC, Easington Road",Hartlepool,TS24 9BA,54.70508429,-1.23403527,Live
2000259560,Alight Media,D48,"200 Ringway, Preston,",Preston,PR1 2ER,53.76078357,-2.7022166,Live
2000259561,Alight Media,D48,70 Prospect Road,Ossett,WF5 9HL,53.68135203,-1.57857741,Live
2000259562,Alight Media,D48,"18a Manchester St, Heywood",Heywood,OL10 1DL,53.59224579,-2.21509883,Live
2000259563,Alight Media,D48,3 High St,Heanor,DE75 7EX,53.01461674,-1.35776184,Live
2000259564,Alight Media,D48,"Britannia Tyres, Derby Road, Hinckley",Hinckley,LE10 1QF,52.54427987,-1.36781187,Live
2000259565,Alight Media,D48,"Filton College, Gloucester Road",Bristol,BS34 7AT,51.51433465,-2.57263005,Live
2000259566,Alight Media,D48,Bloxwich Wok,Walsall,WS3 2DQ,52.6132536,-2.00382312,Live
2000259567,Alight Media,D48,102 Neasham Road,Darlington,DL1 4AQ,54.51938008,-1.54300276,Live
2000259568,Alight Media,D48,"210 Strathmartine Road,",Dundee,DD3 8DE,56.47731378,-2.9834039,Live
2000259569,Alight Media,D48,24 Chester Road,Ellesmere Port,CH65 6RU,53.27324544,-2.91049228,Live
2000259570,Alight Media,D48,Land at: Pentagon Island,Derby,DE21 6EN,52.92410262,-1.46082367,Live
2000259571,Alight Media,D48,1 Smithfield Rd,Wrexham,LL13 8EN,53.04483865,-2.98655653,Live
2000259572,Alight Media,D48,"Dartmouth Middleway, Birmingham,",Birmingham,B6 4BS,52.490923,-1.8886292,Live
2000259573,Alight Media,D48,Ridings Park,Cannock,WS11 7FJ,52.69847746,-2.00950484,Live
2000259574,Alight Media,D48,Newbridge Ind Est,Blackwood Newbridge,NP12 2XF,51.65931117,-3.17598123,Live
2000259575,Alight Media,D48,"Corby St, Dom Valley House Car Park",Sheffield,S4 7UQ,53.394127,-1.4461357,Live
2000259576,Alight Media,D48,Buzz Centenary Way,Burnley,BB11 2EJ,53.788788,-2.2381739,Live
2000259577,Alight Media,D48,HSS Hire 66-70 Cauldwell Street,Bedford,MK42 9AB,52.13107884,-0.47027128,Live
2000259578,Alight Media,D48,"Keighley Cricket Club, Hard Ings Road",Keighley,BD21 3EX,53.87543049,-1.90539159,Live
2000259579,Alight Media,D48,"Dainton Self Storage, St Austell",St Austell,PL25 3RF,50.34408314,-4.73910283,Live
2000259580,Alight Media,D48,23-25 Cromer Road,Norwich,NR6 6NB,52.65770866,1.27645282,Live
2000259581,Alight Media,D48,"Keighley Cricket Club, Hard Ings Road_2",Keighley,BD21 3EX,53.87520779,-1.90474011,Live
2000259582,Alight Media,D48,"Dainton Self Storage, St Austell_2",St Austell,PL25 3RF,50.34393357,-4.73869158,Live
2000259583,Alight Media,D48,23-25 Cromer Road_2,Norwich,NR6 6NB,52.65760649,1.27650378,Live
2000268478,Alight Media,D48,"Ash Street, Dundee",Dundee,DD1 5RG,56.46371312,-2.98526518,Live
2000268479,Alight Media,D48,"62-68 (evens), Carmarthen Road",Swansea,SA1 1HS,51.63093439,-3.94428699,Live
2000268480,Alight Media,D48,"3 Main Street, Panel 1",Barrhead,G78 1RE,55.79893599,-4.39770978,Live
2000268481,Alight Media,D48,"3 Main Street, Panel 2",Barrhead,G78 1RE,55.79900987,-4.39743083,Live
2000268484,Alight Media,D48,55 Halifax Rd,Dewsbury,WF13 4AS,53.70647218,-1.65384533,Live
2000268851,Alight Media,D48,491 Hagley Road,Warley,B66 4AX,52.47278127,-1.96731729,Live
2000268852,Alight Media,D48,45 - 51 Nantwich Road,Crewe,CW2 6AW,53.08922016,-2.4385699,Live
2000269023,Alight Media,D48,"Hick Lane, Batley",Batley,WF17 5LZ,53.71227803,-1.62705511,Live
2000269291,Alight Media,D48,"219 and 221 Northdown Road, Cliftonville",Margate,CT9 2PF,51.38722552,1.40044539,Live
2000269965,Alight Media,D48,Pinchbeck Road (Panel 1),Spalding,PE11 1QL,52.79472215,-0.15188178,Live
2000269966,Alight Media,D48,Pinchbeck Road ( Panel 2 ),Spalding,PE11 1QL,52.79468782,-0.15187836,Live
2000270009,Alight Media,D48,Land on the south east side of Sturry Road,Canterbury,CT1 1DT,51.29052932,1.10065743,Live
2000270082,Alight Media,D48,"AB Centre, Cardiff Road (1)",Barry,CF63 2NW,51.41273119,-3.23692573,Live
2000270083,Alight Media,D48,"AB Centre, Cardiff Road (2)",Barry,CF63 2NW,51.41272851,-3.23693244,Live
2000270088,Alight Media,D48,"Railway Social Club, Wakefield Road",Bradford,BD4 7PE,53.78855614,-1.74253313,Live
2000270089,Alight Media,D48,"Heckmondwike Tavern, High St. Heckmondwike",Heckmondwike,WF16 0AR,53.70735892,-1.67140754,Live
2000270090,Alight Media,D48,746 and 748 City Road,Sheffield,S2 1GN,53.3643186,-1.43454697,Live
2000270091,Alight Media,D48,"Plot 1, Crow Road",Glasgow North,G13 1NU,55.88379398,-4.32565424,Live
2000270092,Alight Media,D48,39a London Road,Gloucester,GL1 3HF,51.86781073,-2.23778428,Live
2000286454,Alight Media,D48,677a Green Lanes,Wood Green,N8 0QY,51.58678386,-0.10115058,Live
2000286455,Alight Media,D48,257-259 High Street East,Wallsend,NE28 7RT,54.9923563,-1.52561187,Live
2000286456,Alight Media,D48,Royal Oak Horninglow Rd North,Burton Upon Trent,DE13 0SF,52.81965608,-1.64024883,Live
2000286457,Alight Media,D48,5 Grammar School Lane,Halesowen,B63 3SW,52.45194077,-2.05256346,Live
2000286458,Alight Media,D48,"437 Chorley Road, Swinton",Swinton Pendlebury,M27 9LQ,53.5164752,-2.35012216,Live
2000286459,Alight Media,D48,Units 1 and 2 Paget Street,Burton Upon Trent,DE14 3TQ,52.79993672,-1.6407689,Live
2000286460,Alight Media,D48,Hendon Grange Hotel,Sunderland,SR2 9QU,54.885461,-1.3649625,Live
2000286461,Alight Media,D48,"Heckmondwike Tavern, High St. Heckmondwike",Heckmondwike,WF16 0AR,53.70726972,-1.67190051,Live
2000286462,Alight Media,D48,Regent Road at Shell garage,Salford,M5 4TS,53.476016,-2.2675598,Live
2000286463,Alight Media,D48,807 Foleshill Road,Coventry,CV6 5HS,52.434423,-1.4955566,Live
2000286464,Alight Media,D48,Land Adj 2 Albert Street,Birmingham,B33 9BD,52.48751204,-1.8119339,Live
2000286465,Alight Media,D48,21 Orchard Street,Burton Upon Trent,DE14 3SJ,52.80087,-1.6365081,Live
2000286466,Alight Media,D48,Steels Social Club,Sunderland,SR4 6LQ,54.90421193,-1.41276508,Live
2000286467,Alight Media,D48,"Dainton Self Store, Coity Road",Bridgend,CF31 1NS,51.515971,-3.5781371,Live
2000286468,Alight Media,D48,"Wynsors Shoes, Brigg Road",Scunthorpe,DN15 6TP,53.5917644,-0.64040592,Live
2000286469,Alight Media,D48,95 Bolton Street,Chorley Adlington,PR7 3AG,53.6479961,-2.62826617,Live
2000286470,Alight Media,D48,"California Social Club, 191-199 Foxhall Road",Ipswich,IP3 8LB,52.052869,1.1798319,Live
2000286471,Alight Media,D48,Clarence Rd,Hartlepool,TS24 8DA,54.69111282,-1.21196117,Live
2000286472,Alight Media,D48,Waterfront UTC,Gillingham (Kent),ME4 4FQ,51.397458,0.54847194,Live
2000286473,Alight Media,D48,"Mon Timber, Usk Way",Newport (Newport),NP20 2NP,51.565719,-2.9852199,Live
2000286474,Alight Media,D48,26 Chaul End Lane,Luton,LU4 8HD,51.889219,-0.4580744,Live
2000286475,Alight Media,D48,69-71 Edgar St,Hereford,HR4 9JP,52.05928278,-2.71955152,Live
2000286476,Alight Media,D48,"Wynsors Shoes, Brigg Road (Panel 2)",Scunthorpe,DN15 6TP,53.59175644,-0.64040592,Live
2000287171,Alight Media,D48,357 Torquay Road,Paignton,TQ3 2BT,50.44766222,-3.55807501,Live
2000288406,Alight Media,D48,"875 Manchester Road, Bradford",Bradford,BD5 8LT,53.76852825,-1.76223896,Live
2000288588,Alight Media,D48,"139 Bolton Road, Kearsley, Bolton",Farnworth,BL4 9BX,53.54319511,-2.38509585,Live
2000303323,Alight Media,D48,"21 Old Taunton Road, Bridgewater",Bridgwater,TA6 3NX,51.126145,-3.001182,Live
2000303722,Alight Media,D48,"78-124 High Street, Tipton, Dudley",Dudley,DY4 9JF,52.54168,-2.066272,Live
2000304805,Alight Media,D48,"117 Wilton Road (A36), Sailsbury",Salisbury,SP2 7HY,51.074076,-1.815976,Live
2000304807,Alight Media,D48,"Pontefract Road, Leeds",Leeds,LS10 1EP,53.774054,-1.512345,Live
2000305141,Alight Media,D48,"Land at Nottingham Road, Melton Mowbray",Melton Mowbray,LE13 0UL,52.768933,-0.891867,Live
2000306128,Alight Media,D48,"2a and 2b Bridge Road, Weston-super-Mare",Weston Super Mare,BS23 3PD,51.343076,-2.967509,Live
2000306129,Alight Media,D48,"Windle Labour Club, 15 Dentons Green Lane, Denton's Green, St Helens",St Helens,WA10 2QF,53.457511,-2.747939,Live
2000306930,Alight Media,D48,"Vale Road, Tonbridge",Tonbridge,TN9 1XX,51.19347,0.287728,Live
1235483130,City Outdoor Media,D96,Shoreditch High Street,Whitechapel,E1 6HP,51.52469717,-0.07743167,Live
1235483133,City Outdoor Media,DM6,"Leeds Central, Yorkshire post tower Wellington St A58M",Leeds,LS1 1RF,53.79692794,-1.5602407,Live
1235483137,City Outdoor Media,DM6,The Deansgate Digital Tower Opp Hilton Hotel,Manchester,M3 4LY,53.4752854,-2.25149644,Live
1235483138,City Outdoor Media,DM6,"The Angel Tower Adj Coop HQ, Miller St",Manchester,M4 4DY,53.48735101,-2.23868901,Live
1235483150,City Outdoor Media,DM6,The Meadowhall Towers Outbound,Sheffield,S9 2FY,53.40741492,-1.4128448,Live
2000113077,City Outdoor Media,DM6,The Old street Digtal Canvas,London City,EC1V 1JB,51.5262915,-0.08765204,Live
2000134084,City Outdoor Media,DM6,London Bridge Quarter,Southwark,SE1 9SE,51.50531282,-0.08914507,Live
2000256544,City Outdoor Media,DM6,The Meadowhall Towers (inbound),Sheffield,S9 2FY,53.40782735,-1.41256291,Live
2000256747,City Outdoor Media,DM6,Regent Road Tower Outbound,Salford,M5 4QH,53.47849168,-2.28148266,Live
2000256965,City Outdoor Media,DM6,Regent Road Towers Inbound,Salford,M5 4QH,53.47849168,-2.28148266,Live
1234841459,Clear Channel Outdoor,DM6,"M6 Digital Tower, Bescot Crescent, Walsall",Walsall,WS1 4SD,52.56307982,-1.98757589,Live
1234841460,Clear Channel Outdoor,DM6,"M6 Digital Tower, Bescot Crescent, Walsall",Walsall,WS1 4SD,52.56307982,-1.98757589,Live
1234841461,Clear Channel Outdoor,DM6,"M6 Digital Tower, Bescot Crescent, Walsall",Walsall,WS1 4SD,52.56307982,-1.98757589,Live
1234841462,Clear Channel Outdoor,DM6,"M6 Digital Tower, Bescot Crescent, Walsall",Walsall,WS1 4SD,52.56324604,-1.98751384,Live
1234841463,Clear Channel Outdoor,DM6,"M6 Digital Tower, Bescot Crescent, Walsall",Walsall,WS1 4SD,52.56307982,-1.98757589,Live
1234841464,Clear Channel Outdoor,DM6,"M6 Digital Tower, Bescot Crescent, Walsall",Walsall,WS1 4SD,52.56307982,-1.98757589,Live
1234841465,Clear Channel Outdoor,DM6,"M6 Digital Tower, Bescot Crescent, Walsall",Walsall,WS1 4SD,52.56307982,-1.98757589,Live
1234841466,Clear Channel Outdoor,DM6,"M6 Digital Tower, Bescot Crescent, Walsall",Walsall,WS1 4SD,52.56325943,-1.98755142,Live
1234843131,Clear Channel Outdoor,DM6,Chiswick Tower (Outbound) Chiswick Roundabout Jct,Chiswick,W4 5QJ,51.4912663,-0.2819441,Live
1234843132,Clear Channel Outdoor,DM6,Chiswick Tower (Outbound) Chiswick Roundabout Jct,Chiswick,W4 5QJ,51.4914584,-0.2816659,Live
1234843134,Clear Channel Outdoor,DM6,Chiswick Tower (Inbound) Chiswick Roundabout Jct G,Chiswick,W4 5QJ,51.4914721,-0.2816888,Live
1234843135,Clear Channel Outdoor,DM6,Chiswick Tower (Inbound) Chiswick Roundabout Jct G,Chiswick,W4 5QJ,51.4912791,-0.2819653,Live
1234843734,Clear Channel Outdoor,DM6,North London Towers (North Tower) Staples Corner,Neasden,NW2 7AH,51.57067513,-0.23386148,Live
1234843735,Clear Channel Outdoor,DM6,North London Towers (North Tower) Staples Corner,Neasden,NW2 7AH,51.57068364,-0.23383396,Live
1234843736,Clear Channel Outdoor,DM6,North London Towers (South Tower) Staples Corner,Neasden,NW2 7JP,51.57030833,-0.23353665,Live
1234843737,Clear Channel Outdoor,DM6,North London Towers (South Tower) Staples Corner,Neasden,NW2 7JP,51.57030168,-0.23356415,Live
1234844772,Clear Channel Outdoor,DM6,A406 Park Royal (Northbound),Neasden,NW10 0QS,51.53681401,-0.28544017,Live
1234844773,Clear Channel Outdoor,DM6,A406 Park Royal (Southbound),Neasden,NW10 0QS,51.53682624,-0.28541735,Live
1234844784,Clear Channel Outdoor,DM6,Storm Hammersmith Tower (Eastbound) A4 Hammersmith Flyover,Hammersmith,W6 9PL,51.4911597,-0.22243892,Live
1234844785,Clear Channel Outdoor,DM6,Hammersmith Tower Hammersmith Tower Hammersmith Flyover (A4) London (Westbound),Hammersmith,W6 9PL,51.49114477,-0.22237321,Live
1234846867,Clear Channel Outdoor,DM6,Billingsgate Tower Billingsgate Tower Aspen Way Bi,Poplar,E14 5ST,51.50707106,-0.01218723,Live
1234847796,Clear Channel Outdoor,DM6,"Liverpool Towers (S) Liverpool Towers, Bowring Par",Liverpool,L14 3NG,53.40614688,-2.89125248,Live
1234847797,Clear Channel Outdoor,DM6,"Liverpool Towers (S) Liverpool Towers, Bowring Par",Liverpool,L14 3NG,53.4065458,-2.8911443,Live
1234847798,Clear Channel Outdoor,DM6,"Liverpool Towers (N) Liverpool Towers, Bowring Par",Liverpool,L14 3NG,53.40654652,-2.89119736,Live
1234847799,Clear Channel Outdoor,DM6,"Liverpool Towers (N) Liverpool Towers, Bowring Par",Liverpool,L14 3NG,53.4061411,-2.89129938,Live
1234849274,Clear Channel Outdoor,DM6,THE SHIP BOROUGH HIGH STREET LONDON,Southwark,SE1 1DX,51.49944427,-0.09678569,Live
1234849279,Clear Channel Outdoor,DM6,STORM TRINITY WAY SALFORD MANCHESTER,Salford,M3 5EN,53.48223422,-2.25748513,Live
1234849336,Clear Channel Outdoor,D48,Oldham Road Collyhurst Street (A62) In Manchester,Manchester,M40 7UE,53.49404625,-2.21633521,Live
1234853305,Clear Channel Outdoor,D48,Bury New ROad (Waterloo Road) Manchester,Manchester,M8 8EB,53.4955006,-2.25148949,Live
1234853306,Clear Channel Outdoor,D48,Bordesley Middleway Birmingham,Birmingham,B11 1AX,52.4711732,-1.87641702,Live
1234853307,Clear Channel Outdoor,D48,Birchfield Road corner of Johnstone Street Birmingham,Birmingham,B19 1SY,52.50460251,-1.9017909,Live
1234853310,Clear Channel Outdoor,D48,46 Holloway Head Birmingham,Birmingham,B1 1NG,52.47422735,-1.90174853,Live
1234853311,Clear Channel Outdoor,D48,Broad Street near Langworthy Road Salford,Salford,M6 5BZ,53.494484,-2.2957856,Live
1234853312,Clear Channel Outdoor,D48,Trinity Way Near Nathan Drive Salford,Salford,M3 5EN,53.48590792,-2.25531426,Live
1234853313,Clear Channel Outdoor,D48,Red Rose Retail Park Regent Road Salford,Salford,M5 3GR,53.47773374,-2.27465837,Live
1234853453,Clear Channel Outdoor,D48,123-125 Rochdale Road (A664) Manchester,Manchester,M4 4HZ,53.48935724,-2.23041834,Live
1234853454,Clear Channel Outdoor,D48,Kingsway Mauldeth Road Manchester,Manchester,M19 1AL,53.43268208,-2.20748576,Live
1234854076,Clear Channel Outdoor,D48,Harrow Road near Scrubs Lane Hammersmith,Kensal Green,NW10 5ND,51.53232876,-0.2388136,Live
1234854077,Clear Channel Outdoor,D48,243-253 Lower Mortlake Road Richmond,Richmond (Surrey),TW9 2LL,51.4677621,-0.288744,Live
1234854158,Clear Channel Outdoor,D48,787 High Road Goodmayes Redbridge,Seven Kings Goodmayes,IG3 8TJ,51.56627289,0.10739576,Live
1234854307,Clear Channel Outdoor,D48,Derby Road Bankfield Mill Liverpool,Bootle,L20 8LW,53.43691802,-2.99560154,Live
1234854308,Clear Channel Outdoor,D48,Derby Road Bankfield Mill Liverpool,Bootle,L20 8LW,53.43698908,-2.99563682,Live
1234854309,Clear Channel Outdoor,D48,Kensington near Smollet Street Liverpool,Liverpool,L6 9AA,53.41187732,-2.95537478,Live
1234854310,Clear Channel Outdoor,D48,Kensington near Smollet Street Liverpool,Liverpool,L6 9AA,53.41187811,-2.95535732,Live
1234854728,Clear Channel Outdoor,D48,Edge Lane Edge Lane Liverpool,Liverpool,L13 1ED,53.41008255,-2.91665192,Live
1234854729,Clear Channel Outdoor,D48,Northam Road Northam Road Southampton,Southampton,SO14 0QL,50.90961717,-1.38956626,Live
1234854730,Clear Channel Outdoor,D48,Northam Road Northam Road Southampton,Southampton,SO14 0QL,50.90935715,-1.38994773,Live
1234854731,Clear Channel Outdoor,D48,Mortlake High Street Richmond,Sheen,SW14 8JB,51.46936955,-0.26642193,Live
1234854853,Clear Channel Outdoor,D48,13 Barrack Road Newcastle,Newcastle Upon Tyne,NE4 6BA,54.97531564,-1.62564929,Live
1234855087,Clear Channel Outdoor,D48,391 Hertford Road Enfield,Enfield,EN3 5PP,51.66377928,-0.04510918,Live
1234855088,Clear Channel Outdoor,D48,Uxbridge Road Hayes Hayes,Hillingdon,UB4 8HY,51.52557562,-0.43677565,Live
1234855226,Clear Channel Outdoor,DM6,Argyle Street Corner of Union Street Glasgow,Glasgow North,G2 8HA,55.85848436,-4.25699394,Live
1234855322,Clear Channel Outdoor,D48,South Accommodation Road Leeds Leeds,Leeds,LS9 0DQ,53.7892405,-1.5229888,Live
1234855323,Clear Channel Outdoor,D48,Pershore Road c/o Ten Acres End Birmingham,Birmingham,B30 2YJ,52.43502177,-1.91797585,Live
1234855468,Clear Channel Outdoor,D48,35 King Street corner of Park Street Stoke on Trent,Stoke On Trent,ST4 3LZ,52.9982503,-2.1576584,Live
1234855469,Clear Channel Outdoor,D48,180 Stratford Road Birmingham,Birmingham,B11 1AG,52.46342563,-1.87616454,Live
1234855470,Clear Channel Outdoor,D48,1242 Coventry Road Birmingham,Birmingham,B25 8BJ,52.46301301,-1.82718212,Live
1234855604,Clear Channel Outdoor,D48,Manchester Road near Jacob Street Bradford,Bradford,BD5 7LZ,53.78010336,-1.76058199,Live
1234855646,Clear Channel Outdoor,D48,York Road outbound adjacent Glenthorpe Terrace Leeds,Leeds,LS9 7QR,53.79785806,-1.51441444,Live
1234855647,Clear Channel Outdoor,D48,York Road outbound adjacent Glenthorpe Terrace Leeds,Leeds,LS9 7QR,53.79785853,-1.51440784,Live
1234855648,Clear Channel Outdoor,D48,Nottingham Ice Stadium Nottingham,Nottingham,NG1 1GN,52.95193391,-1.13892105,Live
1234855837,Clear Channel Outdoor,D48,Queslett Road off junction of A34 Walsall Rd/Newton St Great Barr Birmingham,Birmingham,B42 1TN,52.5456572,-1.93249327,Live
1234855884,Clear Channel Outdoor,D48,North Circular Road adjacent Crown House Ealing,Harlesden,NW10 7PN,51.53723319,-0.28456393,Live
1234855885,Clear Channel Outdoor,D48,North Circular Road adjacent Crown House Ealing,Harlesden,NW10 7PN,51.53723935,-0.28455037,Live
1234855886,Clear Channel Outdoor,D48,Glasgow Road Dock Street Clydebank Glasgow,Clydebank,G81 1LX,55.89212308,-4.39015712,Live
1234855887,Clear Channel Outdoor,D48,201 Glasgow Road Rutherglen Glasgow,Rutherglen,G73 1ST,55.83252724,-4.22339993,Live
1234856001,Clear Channel Outdoor,D48,Great Portwood Street Junction of Marsland Street Richard Street Stockport,Stockport,SK1 2DW,53.4146029,-2.1519839,Live
1234856002,Clear Channel Outdoor,D48,Fort Kinnaird Retail Park Edinburgh,Edinburgh,EH15 3HS,55.93380797,-3.09935727,Live
1234856003,Clear Channel Outdoor,D48,Sir Henry Lauder Road Sir Henry Lauder Road Edinburgh,Edinburgh,EH7 6GH,55.95428472,-3.12336279,Live
1234856004,Clear Channel Outdoor,D48,Sir Henry Lauder Road Sir Henry Lauder Road Edinburgh,Edinburgh,EH7 6GH,55.95434779,-3.1234091,Live
1234856005,Clear Channel Outdoor,D48,Ramac Way Corner of Woolwich Road Charlton,Charlton,SE7 7QU,51.48700426,0.02282044,Live
1234856006,Clear Channel Outdoor,D48,123-125 Rochdale Road 123-125 Rochdale Road Manchester,Manchester,M4 4HZ,53.48935519,-2.2304241,Live
1234856007,Clear Channel Outdoor,D48,Scotswood Road Scotswood Road Adjacent A1 Western By-Pass At Boundary Of B And Q Newcastle,Newcastle Upon Tyne,NE15 6UU,54.9715066,-1.69737814,Live
1234856008,Clear Channel Outdoor,D48,New Town Row Lancaster Street Facing Outward Traffic Birmingham,Birmingham,B4 7AT,52.4880899,-1.89332483,Live
1234856009,Clear Channel Outdoor,D48,Leeds Street Leeds Street Liverpool,Liverpool,L3 2EP,53.41282454,-2.98875857,Live
1234856010,Clear Channel Outdoor,D48,Scotland Road Scotland Road Liverpool,Liverpool,L3 6JH,53.4148056,-2.9825487,Live
1234856011,Clear Channel Outdoor,D48,Summer Row/ Cambridge Street (A457) Out,Birmingham,B3 1LA,52.48111249,-1.90793605,Live
1234856183,Clear Channel Outdoor,D48,107 Burdett Road Tower Hamlets,Bow,E3 4JN,51.52109889,-0.03275367,Live
1234856296,Clear Channel Outdoor,D48,Spring Hill Spring Hill Steward Street Birmingham,Birmingham,B18 7BJ,52.48586021,-1.92427726,Live
1234856297,Clear Channel Outdoor,D48,Spring HIll Spring Hill Birmingham,Birmingham,B18 7BJ,52.48591722,-1.92432137,Live
1234856403,Clear Channel Outdoor,D48,2 Lee High Road corner of Lewis Grove Lewisham,Lewisham,SE13 5LQ,51.4623043,-0.0090831,Live
1234856787,Clear Channel Outdoor,D48,147 Hamilton Road Opposite Macdougall Drive Cambus,Cambuslang,G72 8TH,55.81373608,-4.15023155,Live
1234856788,Clear Channel Outdoor,D48,173 (171) Hamilton Road (A724) Near Wellside Drive,Cambuslang,G72 7PL,55.81285187,-4.14821897,Live
1234856789,Clear Channel Outdoor,D48,North East side of Carntyne Road (Todd Street) Str,Glasgow North,G31 3SR,55.85765967,-4.2000321,Live
1234856790,Clear Channel Outdoor,D48,512 Shetlleston Road Strathclyde,Glasgow North,G31 5JX,55.8529121,-4.1858916,Live
1234856791,Clear Channel Outdoor,D48,19 Rutherglen Road Strathclyde,Rutherglen,G73 1SX,55.83729883,-4.22949303,Live
1234856792,Clear Channel Outdoor,D48,19 Rutherglen Road Strathclyde,Rutherglen,G73 1SX,55.83730752,-4.22951603,Live
1234856803,Clear Channel Outdoor,D48,Slateford Road Slateford Road Edinburgh,Edinburgh,EH14 1PZ,55.9254736,-3.2455501,Live
1234856804,Clear Channel Outdoor,D48,Slateford Road Slateford Road Edinburgh,Edinburgh,EH14 1PZ,55.92549187,-3.24553379,Live
1234856805,Clear Channel Outdoor,D48,North west of Boness Road Chapelhall Strathclyde,Airdrie,ML6 8RR,55.8365783,-3.95649278,Live
1234856806,Clear Channel Outdoor,D48,29/35 St James Street A726 Near Caledonia Street S,Paisley,PA3 2HQ,55.84834203,-4.42962376,Live
1234856807,Clear Channel Outdoor,D48,106-110 Portland Road Corner of Werndee Road South,Norwood,SE25 4PJ,51.39625844,-0.06951809,Live
1234856808,Clear Channel Outdoor,D48,18 Hyde Road Manchester,Manchester,M12 6BQ,53.46961343,-2.22052409,Live
1234856809,Clear Channel Outdoor,D48,18 Hyde Road Manchester,Manchester,M12 6BQ,53.46961889,-2.22055135,Live
1234856810,Clear Channel Outdoor,D48,411 Bury New Road Salford,Salford,M7 4ED,53.50695658,-2.26137164,Live
1234856811,Clear Channel Outdoor,D48,411 Bury New Road Salford,Salford,M7 4ED,53.50700763,-2.26140568,Live
1234856812,Clear Channel Outdoor,D48,64 Manchester Road Clarkeway Corner of Rochfort St,Hyde,SK14 2BB,53.45284917,-2.08480844,Live
1234856815,Clear Channel Outdoor,D48,Ashburton Road Ashburton Road Trafford,Stretford,M17 1RW,53.47378892,-2.33545198,Live
1234856816,Clear Channel Outdoor,D48,Ashburton Road Ashburton Road Trafford,Stretford,M17 1RW,53.47379389,-2.33563876,Live
1234856817,Clear Channel Outdoor,D48,11 Woodhouse Road (Adrenalin) Barnet,Finchley,N12 9EN,51.61251738,-0.17500083,Live
1234856818,Clear Channel Outdoor,D48,47-75 New Town Row Birmingham,Birmingham,B6 4HG,52.4903382,-1.89482013,Live
1234857077,Clear Channel Outdoor,DM6,Storm Mancunian Tower A57 Mancunian Way,Manchester,M12 6HH,53.4737873,-2.2287033,Live
1234857078,Clear Channel Outdoor,DM6,Storm Mancunian Tower A57 Mancunian Way,Manchester,M12 6HH,53.4737927,-2.2287326,Live
1234858471,Clear Channel Outdoor,DM6,Storm Fulham Broadway Hammersmith and Fulham,Fulham,SW6 2DH,51.48012878,-0.19344054,Live
1234858710,Clear Channel Outdoor,D48,Langmuir Road Bargeddie Glasgow,Baillieston,G69 7RR,55.85146218,-4.07173945,Live
1234858711,Clear Channel Outdoor,D48,Langmuir Road Bargeddie Glasgow,Baillieston,G69 7RR,55.85143453,-4.0717912,Live
1234858712,Clear Channel Outdoor,D48,Land at Britannia Road Land at Britannia Road Stockton On Tees,Stockton On Tees,TS19 0AN,54.56878647,-1.32008741,Live
1234858713,Clear Channel Outdoor,D48,54 High Street Wallsend,Wallsend,NE28 8PQ,54.99157265,-1.53110131,Live
1234858714,Clear Channel Outdoor,D48,495 Otley Road Bradford,Bradford,BD2 4QL,53.80850643,-1.73073613,Live
1234858715,Clear Channel Outdoor,D48,40 &amp 42 Denby Dale Road Wakefield,Wakefield,WF2 8DW,53.67603522,-1.50142505,Live
1234858716,Clear Channel Outdoor,D48,53 Earle Street Yeovil,Yeovil,BA20 1JW,50.94241571,-2.62705084,Live
1234858717,Clear Channel Outdoor,D48,Flat Saturn Service Station Wolverhampton,Wolverhampton,WV10 0DW,52.58965509,-2.11644378,Live
1234858718,Clear Channel Outdoor,D48,Flat Saturn Service Station Wolverhampton,Wolverhampton,WV10 0DW,52.58989766,-2.11570176,Live
1234858719,Clear Channel Outdoor,D48,12 Lonsdale Street Stoke On Trent,Stoke On Trent,ST4 4DN,53.00217852,-2.1829622,Live
1234858720,Clear Channel Outdoor,D48,751 Stratford Road Sparkhill Birmingham,Birmingham,B11 4DG,52.44532677,-1.85968982,Live
1234858721,Clear Channel Outdoor,D48,Land on the North East Side of Stourbridge Road Dudley,Stourbridge,DY9 7BU,52.45773407,-2.12660022,Live
1234858722,Clear Channel Outdoor,D48,Stirling Road at Russells Lambert Falkirk,Stenhousemuir,FK5 3NH,56.01468894,-3.82859281,Live
1234858723,Clear Channel Outdoor,D48,Stirling Road at Russells Lambert Falkirk,Stenhousemuir,FK5 3NH,56.01465394,-3.82852848,Live
1234858724,Clear Channel Outdoor,D48,Royston Road opp British Car Auctions Glasgow,Glasgow North,G21 2AA,55.87783713,-4.19884356,Live
1234858725,Clear Channel Outdoor,D48,Royston Road opp British Car Auctions Glasgow,Glasgow North,G21 2AA,55.87783252,-4.19885218,Live
1234858726,Clear Channel Outdoor,D48,125 Marton Road c/o Fife Road Middlesbrough,Middlesbrough,TS1 2DU,54.57309771,-1.22646683,Live
1234858727,Clear Channel Outdoor,D48,3 Ormskirk Road Wigan,Wigan,WN5 0XD,53.54142586,-2.64880335,Live
1234858728,Clear Channel Outdoor,D48,113 Doncaster Road Barnsley,Barnsley,S70 1UF,53.54788619,-1.46920021,Live
1234858729,Clear Channel Outdoor,D48,19 Kings Cross Street Halifax,Halifax,HX1 2SH,53.72079825,-1.86619307,Live
1234858730,Clear Channel Outdoor,D48,6 Tiviot Dale Heaton Norris Stockport,Stockport,SK1 1TA,53.41286809,-2.15880224,Live
1234858731,Clear Channel Outdoor,D48,The Queens Arms 10 Wellington Road Wolverhampton,Wolverhampton,WV14 6AA,52.56737988,-2.07650706,Live
1234858732,Clear Channel Outdoor,D48,159 Parkfield Road Wolverhampton,Wolverhampton,WV4 6ER,52.56700427,-2.11154345,Live
1234858733,Clear Channel Outdoor,D48,Land adjoining 19 Park Road Erdington Birmingham,Birmingham,B23 6TE,52.52322763,-1.84230713,Live
1234858734,Clear Channel Outdoor,D48,845 Washwood Health Road Birmingham,Birmingham,B8 2NR,52.49280752,-1.82113006,Live
1234858735,Clear Channel Outdoor,D48,Pedmore Road Industrial Estate Pedmore Road Brierley Hill Dudley,Dudley,DY5 1TH,52.48565291,-2.10720454,Live
1234858736,Clear Channel Outdoor,D48,Pedmore Road Industrial Estate Pedmore Road Brierley Hill Dudley,Dudley,DY5 1TH,52.4856238,-2.1072256,Live
1234858737,Clear Channel Outdoor,D48,328-330 Slade Road Erdington Birmingham,Birmingham,B23 7LP,52.51894405,-1.85696723,Live
1234858738,Clear Channel Outdoor,D48,399 Hoe Street Waltham Forest Waltham Forest,Walthamstow,E17 9AP,51.57588366,-0.01361652,Live
1234858739,Clear Channel Outdoor,D48,38 &amp 38a Sterling Way Edmonton Enfield,Edmonton,N18 2XZ,51.61452805,-0.06650246,Live
1234858740,Clear Channel Outdoor,D48,709 Barking Road Newham,Plaistow,E13 9EU,51.53013814,0.03561424,Live
1234858741,Clear Channel Outdoor,D48,512 Lordship Lane Tottenham,Wood Green,N22 5DD,51.59835183,-0.09403386,Live
1234858742,Clear Channel Outdoor,D48,65-67 Yardley Road Birmingham,Birmingham,B27 6LL,52.4521021,-1.81845409,Live
1234858744,Clear Channel Outdoor,D48,330 High Street Enfield,Enfield,EN3 4DE,51.64862801,-0.04656635,Live
1234858915,Clear Channel Outdoor,D48,151 Rolfe Street Star Hotel Smethwick Sandwell,Warley,B66 2AU,52.4974931,-1.96234978,Live
1234858916,Clear Channel Outdoor,D48,Allerton Mills Allerton Road Bradford,Bradford,BD15 7QX,53.80316782,-1.81721882,Live
1234858919,Clear Channel Outdoor,D48,Warrington Road C/O Columbia Street Knowsley,Prescot,L34 5QY,53.42940292,-2.79835512,Live
1234858920,Clear Channel Outdoor,D48,18 Oldham Road Failsworth Oldham,Failsworth,M35 0JE,53.50403177,-2.17593448,Live
1234858921,Clear Channel Outdoor,D48,Crosby Road South Bootle,Bootle,L20 4QT,53.45909969,-3.01037853,Live
1234858923,Clear Channel Outdoor,D48,328 Rice Lane Liverpool,Liverpool,L9 2BL,53.45759719,-2.96213551,Live
1234858924,Clear Channel Outdoor,D48,118 Molesworth Street Rochdale,Rochdale,OL16 1TQ,53.6173252,-2.1504993,Live
1234858925,Clear Channel Outdoor,D48,118 Molesworth Street Rochdale,Rochdale,OL16 1TQ,53.61732185,-2.15049674,Live
1234858928,Clear Channel Outdoor,D48,65 Regent Street Eccles,Eccles,M30 0BP,53.48374651,-2.33202537,Live
1234858929,Clear Channel Outdoor,D48,180 Saughton Road North Edinburgh,Edinburgh,EH12 7DS,55.93304111,-3.27510134,Live
1234858930,Clear Channel Outdoor,D48,Bury Road Nr Vale Street Bury,Bolton,BL2 6QE,53.57914704,-2.37447954,Live
1234858931,Clear Channel Outdoor,D48,Bury Road Nr Vale Street Bury,Bolton,BL2 6QE,53.57914749,-2.37444447,Live
1234858932,Clear Channel Outdoor,D48,Clarence Road C/O Middleton Road Hartlepool,Hartlepool,TS24 8DA,54.69151668,-1.21205464,Live
1234858935,Clear Channel Outdoor,D48,Godstone Road Godstone Road Whyteleafe,Caterham,CR3 0EA,51.31436234,-0.08304706,Live
1234858936,Clear Channel Outdoor,D48,Foleshill Road Foleshill Road Coventry,Coventry,CV6 6GS,52.43984218,-1.49127369,Live
1234858937,Clear Channel Outdoor,D48,134 Gravelly Hill North Birmingham,Birmingham,B23 6BA,52.52101242,-1.84524976,Live
1234858939,Clear Channel Outdoor,D48,Mucklow Hill Mucklow Hill Halesowen,Halesowen,B62 8DL,52.45442009,-2.03912988,Live
1234858940,Clear Channel Outdoor,D48,43 Glover Street (AKA Cricketers Arms Nr Trinity Way) West Bromwich,West Bromwich,B70 6EA,52.50811418,-1.98996727,Live
1234858942,Clear Channel Outdoor,D48,43-45 Small Heath Highway Birmingham,Birmingham,B10 0BT,52.47005762,-1.87353544,Live
1234858943,Clear Channel Outdoor,D48,High Road Leyton London,Leyton Leytonstone,E10 5PW,51.56030225,-0.00981453,Live
1234858944,Clear Channel Outdoor,D48,London Road London Road Derby,Derby,DE23 8JQ,52.91263413,-1.46377905,Live
1234858947,Clear Channel Outdoor,D48,Davenport Street Davenport Street Stoke On Trent,Stoke On Trent,ST6 4RB,53.04624364,-2.21155348,Live
1234858949,Clear Channel Outdoor,D48,408 Willenhall Road Wolverhampton,Wolverhampton,WV13 3NY,52.58350496,-2.08429859,Live
1234858950,Clear Channel Outdoor,D48,Bloomfield Road / Brook Street Tipton,Dudley,DY4 9DD,52.53374372,-2.07376542,Live
1234858951,Clear Channel Outdoor,D48,Bloomfield Road / Brook Street Tipton,Dudley,DY4 9DD,52.53368882,-2.07382913,Live
1234858952,Clear Channel Outdoor,D48,74 Station Road Erdington Birmingham,Birmingham,B23 6UG,52.52828065,-1.84197306,Live
1234858953,Clear Channel Outdoor,D48,199-205 Bury New Road Salford,Manchester,M8 8DU,53.4978272,-2.2542517,Live
1234858954,Clear Channel Outdoor,D48,199-205 Bury New Road Salford,Manchester,M8 8DU,53.49784936,-2.25427765,Live
1234858955,Clear Channel Outdoor,D48,Land at Great Portwood Street Stockport,Stockport,SK1 2AX,53.41472704,-2.15161098,Live
1234858956,Clear Channel Outdoor,D48,Land at 142 Liverpool Road Warrington,Warrington,WA5 1QX,53.3863148,-2.63716691,Live
1234858957,Clear Channel Outdoor,D48,285-295 Oldham Road Failsworth,Manchester,M40 7PS,53.49313944,-2.2180544,Live
1234858958,Clear Channel Outdoor,D48,285-295 Oldham Road Failsworth,Manchester,M40 7PS,53.49325877,-2.21790064,Live
1234858959,Clear Channel Outdoor,D48,283 Halifax Road Todmorden Todmorden,Rochdale,OL16 5SQ,53.71676783,-2.08117087,Live
1234858964,Clear Channel Outdoor,D48,Land at 1062 Ashton Old Road Manchester,Manchester,M11 2NG,53.4729565,-2.17406114,Live
1234858966,Clear Channel Outdoor,D48,Springburn Road Springburn Road Glasgow,Glasgow North,G4 0DD,55.87026072,-4.23465265,Live
1234858967,Clear Channel Outdoor,D48,Hamilton Road Opposite Howie Glasgow,Cambuslang,G72 7NT,55.81550332,-4.15458094,Live
1234858968,Clear Channel Outdoor,D48,328 Buxton Road C/O Norwood Road Stockport,Stockport,SK2 7DD,53.38822428,-2.13556877,Live
1234858969,Clear Channel Outdoor,D48,Greenford Road Greenford Road Southall,Southall,UB1 3EB,51.51005317,-0.35480374,Live
1234858970,Clear Channel Outdoor,D48,25 Friern Barnet Road Barnet,Southgate,N11 1NF,51.61618241,-0.14285545,Live
1234858972,Clear Channel Outdoor,D48,203 Bury Road Rochdale,Rochdale,OL11 4EE,53.61515179,-2.16975151,Live
1234858973,Clear Channel Outdoor,D48,203 Bury Road Rochdale,Rochdale,OL11 4EE,53.61505937,-2.17007753,Live
1234858979,Clear Channel Outdoor,D48,Sheffield Road Sheffield Road Sheffield,Sheffield,S9 1SU,53.41534985,-1.40081722,Live
1234858980,Clear Channel Outdoor,D48,Sheffield Road Sheffield Road Sheffield,Sheffield,S9 1SU,53.41540331,-1.40074924,Live
1234858981,Clear Channel Outdoor,D48,50-52 Canal Road Leeds,Leeds,LS12 2LX,53.80148738,-1.58127992,Live
1234858982,Clear Channel Outdoor,D48,108 Rutland Road Sheffield,Sheffield,S3 9PJ,53.39498376,-1.47341096,Live
1234858983,Clear Channel Outdoor,D48,108 Rutland Road Sheffield,Sheffield,S3 9PJ,53.39492775,-1.47345638,Live
1234858984,Clear Channel Outdoor,D48,Land at 436 Sheffield Road Tinsley,Sheffield,S9 1RQ,53.41714923,-1.39703551,Live
1234858985,Clear Channel Outdoor,D48,705 Oldham Road Rochdale,Milnrow,OL16 4RH,53.59384505,-2.14351963,Live
1234858986,Clear Channel Outdoor,D48,208a Sheffield Road Barnsley,Barnsley,S70 4PG,53.54523403,-1.47271142,Live
1234858988,Clear Channel Outdoor,D48,3 Great Central Road and 11 and 13 King Street Lou,Loughborough,LE11 1RW,52.76820606,-1.19997734,Live
1234858989,Clear Channel Outdoor,D48,166 Manchester Rd Salford,Walkden,M38 9LG,53.52695858,-2.41063655,Live
1234858990,Clear Channel Outdoor,D48,48 London Road Northfleet Gravesend,Gravesend,DA11 9JR,51.44211005,0.34925308,Live
1234858991,Clear Channel Outdoor,D48,Civic Centre Oystermouth Road Swansea,Swansea,SA1 3SN,51.62494865,-3.93867091,Live
1234859012,Clear Channel Outdoor,D48,Station Road Station Road Ilkeston,Ilkeston,DE7 5LE,52.97535214,-1.30622242,Live
1234859014,Clear Channel Outdoor,D48,363 Yorkshire Street c/o Halifax Road Rochdale,Rochdale,OL16 2LU,53.62358579,-2.14465838,Live
1234859015,Clear Channel Outdoor,D48,363 Yorkshire Street C/O Halifax Road Rochdale,Rochdale,OL12 9BD,53.62372379,-2.14437711,Live
1234859016,Clear Channel Outdoor,D48,Lane at Neachells Lane Willenhall,Wolverhampton,WV13 3SF,52.59009013,-2.07862535,Live
1234859017,Clear Channel Outdoor,D48,Lane at Neachells Lane Willenhall,Wolverhampton,WV13 3SF,52.59015952,-2.07865729,Live
1234859021,Clear Channel Outdoor,D48,150 Toll End Road Tipton,Dudley,DY4 0ET,52.54074326,-2.03971727,Live
1234859022,Clear Channel Outdoor,D48,57 Canterbury Road Margate,Margate,CT9 5AS,51.38551926,1.36905328,Live
1234859023,Clear Channel Outdoor,D48,Gartocher Rd At Rail Bridge Glasgow,Glasgow North,G32 0HA,55.8531813,-4.154531,Live
1234859024,Clear Channel Outdoor,D48,New Stevenston Street New Stevenston Motherwell,Motherwell,ML1 4NR,55.81685359,-3.97641186,Live
1234859025,Clear Channel Outdoor,D48,69 Bolton Rd Kearsley Bolton,Kearsley,BL4 8DB,53.54393802,-2.38741157,Live
1234859026,Clear Channel Outdoor,D48,Tewkesbury Road Tewkesbury Road Cheltenham,Cheltenham,GL51 9EQ,51.91121138,-2.09505168,Live
1234859027,Clear Channel Outdoor,D48,212 Kenton Road Harrow,Kenton,HA3 8BX,51.58436984,-0.31317839,Live
1234859030,Clear Channel Outdoor,D48,879 High Road nr Goodmayes Ramford,Chadwell Heath,RM6 4HX,51.56806703,0.11787219,Live
1234859041,Clear Channel Outdoor,D48,204 Lee High Road London,Lewisham,SE13 5PL,51.45847579,-0.00001712,Live
1234859042,Clear Channel Outdoor,D48,217 Garratt Lane London,Wandsworth,SW18 2BA,51.44968238,-0.18954959,Live
1234859043,Clear Channel Outdoor,D48,377 Folkestone Road Dover,Dover,CT17 9JR,51.12016554,1.28950273,Live
1234859044,Clear Channel Outdoor,D48,224 Lichfield Road Willenhall Willenhall,Walsall,WV12 5BG,52.61310605,-2.03429695,Live
1234859045,Clear Channel Outdoor,D48,143 Malpas Road Deptford,Brockley,SE4 1BQ,51.46906038,-0.03500304,Live
1234859046,Clear Channel Outdoor,D48,Cleveland Street Profile Business Park Hull,Hull,HU8 8AZ,53.75206391,-0.32861992,Live
1234859047,Clear Channel Outdoor,D48,253 Manchester Road Warrington,Warrington,WA1 3RQ,53.39694642,-2.56629793,Live
1234859048,Clear Channel Outdoor,D48,10 Kirkmanshulme Lane Manchester,Manchester,M12 4WA,53.45918646,-2.20236699,Live
1234859050,Clear Channel Outdoor,D48,130 Lancaster Road Morecambe,Morecambe,LA4 5QN,54.06964981,-2.85292041,Live
1234859053,Clear Channel Outdoor,D48,176 Higher Hillgate Stockport,Stockport,SK1 3YQ,53.40009946,-2.15342994,Live
1234859058,Clear Channel Outdoor,D48,Talbot Rd nr Seymour Grove Manchester,Stretford,M16 0PF,53.46192795,-2.27758558,Live
1234859059,Clear Channel Outdoor,D48,Talbot Rd nr Seymour Grove Manchester,Stretford,M16 0PF,53.4619559,-2.27738039,Live
1234859063,Clear Channel Outdoor,D48,1585 Shettleston Road Gartocher Road Glasgow,Glasgow North,G32 9AS,55.85077615,-4.1548991,Live
1234859064,Clear Channel Outdoor,D48,164 Chesterfield Road South Mansfield,Mansfield,NG19 7EE,53.15403721,-1.20817324,Live
1234859065,Clear Channel Outdoor,D48,161-163 Holyhead Road Birmingham,Birmingham,B21 0BD,52.50760322,-1.95267031,Live
1234859066,Clear Channel Outdoor,D48,56 Bordesley Green Rd Birmingham,Birmingham,B9 4TA,52.47842117,-1.85642606,Live
1234859067,Clear Channel Outdoor,D48,56 Bordesley Green Rd Birmingham,Birmingham,B9 4TA,52.47836016,-1.85642673,Live
1234859073,Clear Channel Outdoor,D48,39 Lower Cathedral Road Riverside Cardiff,Cardiff,CF11 6LW,51.47969948,-3.18867828,Live
1234859078,Clear Channel Outdoor,D48,Billboard Live Test Panel Woking Office (Broadsign) Woking,Woking,GU22 7NJ,51.316275,-0.560249,Live
1234859121,Clear Channel Outdoor,D48,Springbank Service Station Ayr Road Kilmarnock,Irvine,KA12 8NF,55.6027484,-4.66485599,Live
1234859122,Clear Channel Outdoor,D48,Springbank Service Station Ayr Road Kilmarnock,Irvine,KA12 8NF,55.60274718,-4.66485851,Live
1234859137,Clear Channel Outdoor,D48,46 Watford Road,Birmingham,B30 1HZ,52.41719365,-1.93069955,Live
1234859142,Clear Channel Outdoor,D48,Middleton Rd Bowker Vale Station Manchester,Stretford,M17 1BN,53.52471723,-2.24883111,Live
1234859143,Clear Channel Outdoor,D48,Wharfside Way Approaching Village Circle Mancheste,Stretford,M17 1BN,53.46695522,-2.30343928,Live
1234859144,Clear Channel Outdoor,D48,113 Belmont Rd Haringey,Tottenham,N17 6AS,51.59064996,-0.09286691,Live
1234859150,Clear Channel Outdoor,D48,337 London Road Bexhill on Sea,Bexhill,TN39 4AJ,50.85359077,0.47451526,Live
1234859160,Clear Channel Outdoor,D48,469-473 Oldham Road Rochdale,Milnrow,OL16 4TD,53.60247368,-2.14588219,Live
1234859163,Clear Channel Outdoor,D48,Old Church Road Chingford Waltham Forest,Chingford,E4 6SJ,51.6172789,-0.01729072,Live
1234859201,Clear Channel Outdoor,D48,Bushbury Lane nr Ripon Road Wolverhampton,Wolverhampton,WV10 9TN,52.60782035,-2.12639446,Live
1234859202,Clear Channel Outdoor,D48,Bushbury Lane Nr Ripon Road Wolverhampton,Wolverhampton,WV10 9TN,52.6078351,-2.1264131,Live
1234859203,Clear Channel Outdoor,D48,32 Harefield Road Dundee,Dundee,DD2 3JU,56.4745937,-3.0025559,Live
1234859205,Clear Channel Outdoor,D48,403 Tong Street Bradford,Bradford,BD4 6LY,53.76799262,-1.71030622,Live
1234859206,Clear Channel Outdoor,D48,Gelderd Road Opp Temban Fabrications Leeds,Leeds,LS12 6DL,53.77235724,-1.59094563,Live
1234859207,Clear Channel Outdoor,D48,Gelderd Road Opp Temban Fabrications Leeds,Leeds,LS12 6DL,53.77230862,-1.59099154,Live
1234859208,Clear Channel Outdoor,D48,148 Almada Street Hamilton,Hamilton,ML3 0EW,55.7782111,-4.0519764,Live
1234859209,Clear Channel Outdoor,D48,Portrack Lane Maritime Street Stockton on Tees,Stockton On Tees,TS18 2HD,54.56956215,-1.30696632,Live
1234859210,Clear Channel Outdoor,D48,62 South Street Yeovil,Yeovil,BA20 1QQ,50.9408641,-2.62858002,Live
1234859211,Clear Channel Outdoor,D48,High Street Kirkcaldy,Kirkcaldy,KY1 2SN,56.11736552,-3.15108986,Live
1234859212,Clear Channel Outdoor,D48,High Street Kirkcaldy,Kirkcaldy,KY1 2SN,56.11730496,-3.15113153,Live
1234859213,Clear Channel Outdoor,D48,194-198 Burnt Oak Broadway Edgware,Burnt Oak,HA8 0AS,51.6030968,-0.27010843,Live
1234859215,Clear Channel Outdoor,D48,256-270 Wallasey Village Road Wallasey,Wallasey,CH45 3HB,53.4282903,-3.06790345,Live
1234859216,Clear Channel Outdoor,D48,239 Cannock Road c/o Nine Elms Lane Wolverhampton,Wolverhampton,WV10 0AH,52.59606236,-2.11579555,Live
1234859217,Clear Channel Outdoor,D48,120/130 Glasgow Rd Dennyloanhead Falkirk,Bonnybridge,FK4 1QH,55.99479831,-3.92106778,Live
1234859218,Clear Channel Outdoor,D48,120/130 Glasgow Rd Dennyloanhead Falkirk,Bonnybridge,FK4 1QH,55.99478038,-3.92115862,Live
1234859219,Clear Channel Outdoor,D48,29 Seaforth Road Sefton,Litherland,L21 2TX,53.46557159,-3.00686131,Live
1234859220,Clear Channel Outdoor,D48,721 Bolton Road Junc Station Road Swinton,Swinton Pendlebury,M27 8FL,53.5197885,-2.33381084,Live
1234859221,Clear Channel Outdoor,D48,10/12 Oldham Road Ashton Upon Lyne,Ashton Under Lyne,OL6 7ND,53.48686848,-2.09697871,Live
1234859222,Clear Channel Outdoor,D48,Church Road C/O Vine Street Birmingham,Birmingham,B6 5TS,52.50167393,-1.87398563,Live
1234859223,Clear Channel Outdoor,D48,248 Harnall Lane East nr King Edward Road Coventry,Coventry,CV1 5AY,52.41546389,-1.49284176,Live
1234859224,Clear Channel Outdoor,D48,High Street adj Pinfold Bloxwich Gun Club Walsall,Walsall,WS3 2DD,52.6120863,-2.00035158,Live
1234859225,Clear Channel Outdoor,D48,30 Cumberland Road Glasgow,Glasgow North,G33 6EW,55.88723846,-4.15457649,Live
1234859226,Clear Channel Outdoor,D48,3 Mavisbank Terrace Paisley,Paisley,PA1 1TL,55.83925044,-4.41547159,Live
1234859227,Clear Channel Outdoor,D48,149 Battle Road nr The Rising Sun PH St Leonards Hastings,Hastings,TN37 7AE,50.87312829,0.55353039,Live
1234859228,Clear Channel Outdoor,D48,93 Roman Bank Skegness,Skegness,PE25 2SW,53.14827704,0.3387062,Live
1234859230,Clear Channel Outdoor,D48,48 Spencer Bridge Road Northampton,Northampton,NN5 5ET,52.24227113,-0.91438068,Live
1234859231,Clear Channel Outdoor,D48,325 Whitehall Road Leeds,Leeds,LS12 6AQ,53.78161643,-1.59223712,Live
1234859233,Clear Channel Outdoor,D48,77 Eccleston Street St Helens,St Helens,WA10 2PF,53.45192122,-2.7494045,Live
1234859234,Clear Channel Outdoor,D48,130 Upwell Street Sheffield,Sheffield,S4 8AJ,53.40635342,-1.43509332,Live
1234859235,Clear Channel Outdoor,D48,37 Leeds Road Kirklees,Dewsbury,WF12 7BB,53.6937133,-1.62401199,Live
1234859236,Clear Channel Outdoor,D48,5 Britannia Road Fountain Street Leeds,Morley,LS27 0AP,53.73771976,-1.61215158,Live
1234859237,Clear Channel Outdoor,D48,554/556 Royston Road,Glasgow North,G21 2DJ,55.8735333,-4.2098964,Live
1234859238,Clear Channel Outdoor,D48,Portrack Lane Maritime Road Stockton on Tees,Stockton On Tees,TS18 2HP,54.57028836,-1.30457529,Live
1234859241,Clear Channel Outdoor,D48,108 Cheapside/ Lincoln Street Worksop,Worksop,S80 2JJ,53.30236174,-1.11235284,Live
1234859242,Clear Channel Outdoor,D48,126 Ealing Broadway Ealing,Ealing,W13 0SY,51.50990498,-0.32644464,Live
